region,country,place,latitude,longitude,altitude,koppen
Region-1,Algeria,Adrar,27.856666666666666,-0.245,279.230000,BWh
Region-1,Algeria,AinSefra,32.76166666666666,-0.6466666666666667,1076.000000,BWk
Region-1,Algeria,AlgerDarElBeida,36.72333333333333,3.216666666666667,25.000000,Csa
Region-1,Algeria,Annaba,36.85,7.815,3.000000,Csa
Region-1,Algeria,BBArreridj,36.07166666666667,4.85,955.000000,BSk
Region-1,Algeria,BBMokhtar,21.423333333333336,1.0083333333333333,395.000000,BWh
Region-1,Algeria,Bechar,31.674999999999997,-2.263333333333333,808.640000,BWh
Region-1,Algeria,BeniSaf,35.306666666666665,-1.455,68.000000,BSh
Region-1,Algeria,Biskra,34.85166666666667,5.801666666666667,82.000000,BWh
Region-1,Algeria,Constantine,36.333333333333336,6.686666666666667,685.200000,Csa
Region-1,Algeria,Djanet,24.313333333333336,9.473333333333333,968.000000,BWh
Region-1,Algeria,Djelfa,34.67166666666667,3.355,1180.000000,BSk
Region-1,Algeria,ElBayadh,33.735,1.1516666666666666,1361.000000,BSk
Region-1,Algeria,ElGolea,30.601666666666667,2.875,397.000000,BWh
Region-1,Algeria,ElOued,33.53666666666667,6.8133333333333335,63.000000,BWh
Region-1,Algeria,Ghardaia,32.401666666666664,3.785,466.000000,BWh
Region-1,Algeria,HassiMessaoud,31.701666666666664,6.181666666666667,140.000000,BWh
Region-1,Algeria,Illizi,26.731666666666666,8.620000000000001,542.000000,BWh
Region-1,Algeria,InAmenas,28.068333333333335,9.671666666666669,560.000000,BWh
Region-1,Algeria,InSalah,27.27166666666667,2.57,268.000000,BWh
Region-1,Algeria,JijelAeroport,36.85166666666667,5.930000000000001,8.000000,Csa
Region-1,Algeria,Mecheria,33.608333333333334,-0.245,1123.200000,BWk
Region-1,Algeria,Medea,36.35333333333333,2.806666666666666,1030.000000,Csa
Region-1,Algeria,Miliana,36.334999999999994,2.286666666666666,714.960000,Csa
Region-1,Algeria,Mostaganem,35.97,0.1616666666666666,137.000000,Csa
Region-1,Algeria,Naama,33.31666666666667,-0.3216666666666666,1166.000000,BWk
Region-1,Algeria,OranSennia,35.70333333333333,-0.6233333333333333,90.000000,BSh
Region-1,Algeria,Ouargla,31.951666666666668,5.470000000000001,143.650000,BWh
Region-1,Algeria,Saida,34.935,0.1966666666666666,750.000000,BSk
Region-1,Algeria,SidiBelAbbes,35.21,-0.655,482.000000,BSk
Region-1,Algeria,SoukAhras,36.36833333333333,7.953333333333334,860.000000,Csa
Region-1,Algeria,Tamanrasset,22.868333333333332,5.465,1372.000000,BWh
Region-1,Algeria,Tiaret,35.406666666666666,1.475,977.000000,BSk
Region-1,Algeria,Timimoun,29.298333333333336,0.2866666666666667,312.000000,BWh
Region-1,Algeria,TiziOuzou,36.76166666666667,4.028333333333333,153.400000,Csa
Region-1,Algeria,TlemcenZenata,35.03,-1.5016666666666667,246.100000,BSh
Region-1,Benin,Bohicon,7.1866666666666665,2.086666666666667,166,Aw
Region-1,Benin,Cotonou,6.35,2.3833333333333333,7,Aw
Region-1,Benin,Natitingou,10.436666666666667,1.403333333333333,429,Aw
Region-1,Benin,Parakou,9.35,2.6166666666666667,392,Aw
Region-1,Benin,Save,8.033333333333333,2.466666666666667,198,Aw
Region-1,BurkinaFaso,BOBO-DIOULASSO,11.186666666666666,-4.3,459,Aw
Region-1,BurkinaFaso,BOGANDE,13.046666666666669,-0.21,294,BSh
Region-1,BurkinaFaso,BOROMO,11.796666666666669,-2.9366666666666665,270,Aw
Region-1,BurkinaFaso,DEDOUGOU,12.486666666666666,-3.546666666666667,299,BSh
Region-1,BurkinaFaso,DORI,14.096666666666668,-0.0966666666666666,276,BSh
Region-1,BurkinaFaso,FADA-NGOURMA,12.086666666666666,0.35,308,Aw
Region-1,BurkinaFaso,GAOUA,10.396666666666668,-3.2466666666666666,292,Aw
Region-1,BurkinaFaso,OUAGADOUGOU,12.35,-2.2466666666666666,303,BSh
Region-1,BurkinaFaso,OUAHIGOUYA,13.646666666666668,-2.4966666666666666,335,BSh
Region-1,BurkinaFaso,PO,11.186666666666666,-1.15,321,Aw
Region-1,CaboVerde,PRAI,14.961666666666666,-23.546666666666667,70,BWh
Region-1,CaboVerde,SA,16.733333333333334,-22.933333333333337,54,BWh
Region-1,CentralAfricanRepublic,Bangui,4.4,18.516666666666666,365 m,Aw
Region-1,CentralAfricanRepublic,Berberati,4.216666666666667,15.783333333333331,583 ,Aw
Region-1,CentralAfricanRepublic,Bouar,5.933333333333334,15.633333333333333,1019 ,Aw
Region-1,Egypt,AbuSimbel,22.2,31.616666666666667,187,BWh
Region-1,Egypt,AlexandriaNouzha,31.2,29.95,1.78,BSh
Region-1,Egypt,Asswan,23.966666666666665,32.78333333333333,191.7,BWh
Region-1,Egypt,CairoAP,30.133333333333333,31.4,64.12,BWh
Region-1,Egypt,HurghadaAP,27.15,33.71666666666667,8.43,BWh
Region-1,Egypt,Luxor,25.666666666666668,32.7,81.55,BWh
Region-1,Egypt,MersaMatruh,31.333333333333332,27.216666666666665,25,BWh
Region-1,Egypt,Minya,28.083333333333332,30.733333333333334,37.15,BWh
Region-1,Egypt,PortSaidElgamil,31.283333333333335,32.233333333333334,0.8,BWh
Region-1,Egypt,SharmElSheikhAP,27.966666666666665,34.38333333333333, ,BWh
Region-1,Gambia,BANJUL,13.45,-16.646666666666665,"5
",Aw
Region-1,Gambia,BASSE,13.36,-14.26,"35
",Aw
Region-1,Gambia,FATOTO,13.4,-13.946666666666667,"20
",BSh
Region-1,Gambia,JANJANBUREH,13.596666666666668,-14.786666666666669,8,BSh
Region-1,Gambia,JENOI,13.486666666666666,-16.586666666666666,"15
",BSh
Region-1,Gambia,KAUR,13.7,-15.396666666666668,"20
",BSh
Region-1,Gambia,KEREWAN,13.5,-16.1,"16
",Dsa
Region-1,Gambia,SAPU,13.35,-14.9,"9
",Aw
Region-1,Ghana,Abetifi,6.666666666666667,-0.75,"594.7
",Aw
Region-1,Ghana,Accra,5.6,-0.1666666666666666,"62
",Aw
Region-1,Ghana,Akatsi,6.116666666666666,0.8,"53.6
",Aw
Region-1,Ghana,AkimOda,5.933333333333334,-0.9833333333333332,"139.4
",Aw
Region-1,Ghana,Akuse,6.1,0.1166666666666666,"17.4
",Aw
Region-1,Ghana,Axim,4.866666666666667,-2.2333333333333334,"37.8
",Am
Region-1,Ghana,Bole,9.033333333333331,-2.4833333333333334,"299.5
",Aw
Region-1,Ghana,Ho,6.6,0.4666666666666667,"157.6
",Aw
Region-1,Ghana,KeteKrachi,7.816666666666666,-0.0333333333333333,"122
",Aw
Region-1,Ghana,Koforidua,6.083333333333333,-0.25,"166.5
",Aw
Region-1,Ghana,Kumasi,6.716666666666667,-1.6,"286.3
",Aw
Region-1,Ghana,Navrongo,10.9,-1.1,"213.4
",Aw
Region-1,Ghana,Saltpond,5.2,-1.0666666666666669,"439
",Aw
Region-1,Ghana,SefwiBekwai,6.2,-2.3333333333333335,"170.8
",Aw
Region-1,Ghana,Sunyani,7.404999999999999,-2.3949999999999996,"303
",Aw
Region-1,Ghana,Takoradi,4.883333333333333,-1.7666666666666666,"10
",Aw
Region-1,Ghana,Tema,5.616666666666667,0.0,"14
",BSh
Region-1,Ghana,Wa,10.05,-2.5,"322.7
",Aw
Region-1,Guinea,BOKE,10.933333333333334,-14.316666666666666,69,Aw
Region-1,Guinea,CONAKRY,9.566666666666666,-13.616666666666667,26,Am
Region-1,Guinea,KANKAN,10.383333333333333,-9.3,377,Aw
Region-1,Guinea,KINDIA,10.05,-12.866666666666667,458,Aw
Region-1,Guinea,KOUNDARA,12.566666666666666,-13.516666666666667,Â ,Aw
Region-1,Guinea,LABE,11.316666666666666,-12.3,1025,Aw
Region-1,Guinea,NZEREKORE,7.75,-8.783333333333333,520,Aw
Region-1,GuineaBissau,BAFATA,12.166666666666666,-14.666666666666666,42,Aw
Region-1,GuineaBissau,BISSAUAEROPORTO,11.883333333333333,-15.65,39,Aw
Region-1,GuineaBissau,BOLAMA,11.583333333333334,-15.483333333333333,18,Aw
Region-1,Libya,BENINA,32.083333333333336,20.266666666666666,32,BSh
Region-1,Libya,GHADAMES,30.133333333333333,9.5,357,BWh
Region-1,Libya,GHAT,25.133333333333333,10.133333333333333,692,BWh
Region-1,Libya,HON,24.133333333333333,15.45,267,BWh
Region-1,Libya,JALO,29.033333333333335,12.566666666666666,60,BWh
Region-1,Libya,MISURATA,32.31666666666667,15.05,32,BSh
Region-1,Libya,NALUT,31.866666666666667,10.983333333333333,621,BWh
Region-1,Libya,SIRTE,31.2,16.583333333333332,13,BWh
Region-1,Libya,TOBRUK,32.1,23.933333333333337,50,BWh
Region-1,Libya,YEFREN,32.083333333333336,12.55,691,BSh
Region-1,Libya,ZUARA,32.88333333333333,12.083333333333334,3,BWh
Region-1,Madagascar,AMBOHITSILAOZANA,-17.633333333333333,48.5,782.100000,Cwa
Region-1,Madagascar,ANTALAHA,-14.883333333333333,50.25,87.000000,Af
Region-1,Madagascar,ANTANANARIVO,-18.866666666666667,47.5,1310.000000,Cwa
Region-1,Madagascar,ANTSIRABE,-19.816666666666663,47.06666666666667,1523.000000,Cwb
Region-1,Madagascar,ANTSIRANANA,-12.35,49.3,114.000000,Aw
Region-1,Madagascar,ANTSOHIHY,-14.883333333333333,47.983333333333334,23.000000,Aw
Region-1,Madagascar,BESALAMPY,-16.75,44.483333333333334,38.000000,Aw
Region-1,Madagascar,FARAFANGANA,-22.8,47.833333333333336,8.000000,Af
Region-1,Madagascar,FIANARANTSOA,-21.45,47.1,1115.000000,Cwa
Region-1,Madagascar,IVATO,-18.8,47.483333333333334,1279.000000,Cwa
Region-1,Madagascar,MAHAJANGA,-15.666666666666666,46.35,26.000000,Aw
Region-1,Madagascar,MAHANORO,-19.833333333333332,48.8,5.000000,Af
Region-1,Madagascar,MAINTIRANO,-18.05,44.03333333333333,23.000000,Aw
Region-1,Madagascar,MANANJARY,-21.2,48.36666666666667,5.000000,Af
Region-1,Madagascar,MOROMBE,-21.75,43.41,5.000000,BSh
Region-1,Madagascar,MORONDAVA,-20.283333333333335,44.31666666666667,7.000000,BSh
Region-1,Madagascar,NOSYBE,-13.316666666666666,48.31666666666667,10.000000,Aw
Region-1,Madagascar,RANOHIRA,-22.55,45.4,824.000000,Cwa
Region-1,Madagascar,SAINTEMARIE,-17.083333333333332,49.81666666666667,2.000000,Af
Region-1,Madagascar,SAMBAVA,-14.283333333333331,50.166666666666664,5.000000,Af
Region-1,Madagascar,TAOLAGNARO,-25.033333333333335,46.95,8.000000,Am
Region-1,Madagascar,TOAMASINA,-18.116666666666667,49.4,5.000000,Af
Region-1,Madagascar,TOLIARA,-23.383333333333333,43.733333333333334,8.000000,BWh
Region-1,Mali,BamakoSenou,12.5,-7.95,"380
",Aw
Region-1,Mali,Bougouni,11.4,-7.5,"350
",Aw
Region-1,Mali,Kayes,14.4,-11.4,"47
",BSh
Region-1,Mali,Kenieba,12.9,-11.2,"132
",Aw
Region-1,Mali,Kita,13.1,-9.5,"333
",Aw
Region-1,Mali,Koutiala,12.4,-5.5,"365
",Aw
Region-1,Mali,Mopti,14.5,-4.1,"276
",BSh
Region-1,Mali,NIORORDUSAHELE,15.2,-9.4,"235
",BSh
Region-1,Mali,Nara,15.2,-7.3,"271
",BWh
Region-1,Mali,San,13.3,-4.8,"283
",BWh
Region-1,Mali,Segou,13.4,-6.2,"288
",BSh
Region-1,Mali,Sikasso,11.4,-5.7,"374
",Aw
Region-1,Mauritius,Agalega,-10.438333333333334,56.656666666666666,3,Am
Region-1,Mauritius,Plaisance,-20.441666666666663,57.68333333333333,50,Am
Region-1,Mauritius,Pointe_Canon,-19.753333333333337,63.474999999999994,62,Aw
Region-1,Mauritius,St_Brandon,-16.45,59.61666666666667,3.65,Aw
Region-1,Mauritius,Vacoas,-20.368333333333336,57.55166666666667,423,Af
Region-1,Morocco,AGADIRINEZGANNE,30.443333333333335,-9.606666666666667,23,BSh
Region-1,Morocco,ALHOUCEIMA,35.24333333333333,-3.875,12,BSh
Region-1,Morocco,BOUARFA,32.525,-2.0466666666666664,1142,BWh
Region-1,Morocco,CASABLANCAANFA,33.605,-7.668333333333334,56,Csa
Region-1,Morocco,DAKHLA,23.716666666666665,-15.933333333333334,11,BWh
Region-1,Morocco,ERRACHIDIA,32.013333333333335,-4.433333333333334,1037,BWh
Region-1,Morocco,ESSAOUIRA,31.558333333333337,-9.803333333333336,7,BSk
Region-1,Morocco,FESSAIS,33.96666666666667,-4.983333333333333,571,Csa
Region-1,Morocco,GUELMIM,29.09,-10.121666666666666,300,BWh
Region-1,Morocco,IFRANE,33.50833333333333,-5.216666666666667,1663,Csa
Region-1,Morocco,KENITRA,34.3,-6.6,5,Csa
Region-1,Morocco,LAAYOUNE,27.22,-13.295,64,BWh
Region-1,Morocco,LARACHE,35.22666666666667,-6.116666666666666,47,Csa
Region-1,Morocco,MARRAKECH,31.666666666666668,-8.088333333333335,464,BSh
Region-1,Morocco,MEKNES,33.94166666666667,-5.54,548,Csa
Region-1,Morocco,MIDELT,32.72333333333333,-4.783333333333333,1508,BWk
Region-1,Morocco,OUARZAZATE,30.951666666666668,-6.958333333333334,1136,BWh
Region-1,Morocco,OUJDA,34.785,-1.965,465,BSk
Region-1,Morocco,RABATSALE,34.05,-6.766666666666667,75,Csa
Region-1,Morocco,SAFI,32.321666666666665,-9.258333333333333,43,BSh
Region-1,Morocco,SMARA,26.75,-11.683333333333334,110,BWh
Region-1,Morocco,TANTAN,28.513333333333332,-11.2,45,BWh
Region-1,Morocco,TAZA,34.21666666666667,-4.0,509,Csa
Region-1,Morocco,TETOUAN,35.64,-5.406666666666666,5,Csa
Region-1,Niger,Agadez_Aero,16.966666666666665,7.983333333333333,501,BWh
Region-1,Niger,Bilma,18.683333333333337,12.916666666666666,355,BWh
Region-1,Niger,Birni_NKonni,13.8,5.283333333333333,272,BSh
Region-1,Niger,Diffa,13.416666666666666,12.783333333333331,300,BWh
Region-1,Niger,Dosso,13.016666666666667,3.183333333333333,227,BSh
Region-1,Niger,Gaya,11.883333333333333,3.45,202,BSh
Region-1,Niger,Goure,13.966666666666669,10.266666666666667,443,BWh
Region-1,Niger,Magaria,12.983333333333333,8.983333333333333,402,BSh
Region-1,Niger,Maine_Soroa,13.233333333333333,11.983333333333333,338,BWh
Region-1,Niger,Maradi_Aero,13.466666666666669,7.083333333333333,372,BSh
Region-1,Niger,NGuigmi,14.25,13.116666666666667,287,BWh
Region-1,Niger,Niamey_Aero,13.483333333333333,2.1666666666666665,222,BSh
Region-1,Niger,Tahoua_Aero,14.9,5.25,390,BWh
Region-1,Niger,Tillabery,14.2,1.45,209,BSh
Region-1,Niger,Zinder_Aero,13.766666666666667,8.983333333333333,439,BSh
Region-1,Nigeria,Ilorin,8.546666666666667,4.6466666666666665,343,Aw
Region-1,Nigeria,Jalingo,8.8,11.4,273,Aw
Region-1,RepublicOfCongo,BRAZZAVILLE,-4.25,15.25,"315
",Aw
Region-1,RepublicOfCongo,DJAMBALA,-2.5966666666666667,14.846666666666666,"789
",Aw
Region-1,RepublicOfCongo,DOLISIE,-4.036666666666666,12.7,"331
",Aw
Region-1,RepublicOfCongo,IMPFONDO,1.6966666666666668,18.11,"326
",Am
Region-1,RepublicOfCongo,MAKOUA,0.0966666666666666,15.665,"380
",Am
Region-1,RepublicOfCongo,MOUYONDZI,-4.065,13.996666666666666,"552
",Aw
Region-1,RepublicOfCongo,MPOUYA,-2.6966666666666668,16.296666666666667,"312
",Aw
Region-1,RepublicOfCongo,OUESSO,1.6966666666666668,16.03,"351
",Am
Region-1,RepublicOfCongo,POINTENOIRE,-4.8966666666666665,11.75,"16
",Aw
Region-1,RepublicOfCongo,SIBITI,-3.765,13.35,"530
",Aw
Region-1,Seychelles,SeychellesIntlAirport,-4.69,55.585,3,Af
Region-1,SouthAfrica,Bethlehem,-28.331666666666667,28.33833333333333,1689,Cwb
Region-1,SouthAfrica,BloemfonteinWO,-29.123333333333335,26.37166666666667,1354,BSk
Region-1,SouthAfrica,CalviniaWO,-31.55833333333333,19.82,975,BWk
Region-1,SouthAfrica,CapeTown,-34.028333333333336,18.613333333333333,42,Csb
Region-1,SouthAfrica,EastLondonWO,-33.04833333333333,27.89666666666667,134,Cfa
Region-1,SouthAfrica,GeorgeWO,-34.025,22.388333333333332,197,Cfb
Region-1,SouthAfrica,GoughIsland,-40.43,-9.948333333333334,54,Cfb
Region-1,SouthAfrica,KimberlyWO,-28.836666666666662,24.785,1196,BSh
Region-1,SouthAfrica,MafikengWO,-25.82166666666667,25.590000000000003,1281,BSh
Region-1,SouthAfrica,MarionIsland,-46.92666666666667,37.90166666666667,24,ET
Region-1,SouthAfrica,PolokwaneWO,-23.895000000000003,29.46,1226,BSh
Region-1,SouthAfrica,PortElizabethWO,-34.001666666666665,25.698333333333338,60,Cfb
Region-1,SouthAfrica,SpringbokWO,-29.683333333333337,17.94,1006,BSh
Region-1,SouthAfrica,UpingtonWO,-28.466666666666665,21.335,835,BWh
Region-1,Sudan,AbuHamad,19.533333333333335,33.333333333333336,  315,BWh
Region-1,Sudan,AbuNaama,12.733333333333333,34.13333333333333,  445,BSh
Region-1,Sudan,Atbara,11.333333333333334,27.666666666666668,  543,BWh
Region-1,Sudan,Babnousa,11.333333333333334,27.666666666666668,  543,BSh
Region-1,Sudan,Dongola,19.166666666666668,30.483333333333334,  228,BWh
Region-1,Sudan,EdDamazine,11.816666666666666,34.4,  470,BSh
Region-1,Sudan,EdDueim,13.983333333333333,32.333333333333336,  380,BWh
Region-1,Sudan,ElFasher,13.633333333333333,25.333333333333332,  730,BWh
Region-1,Sudan,ElGedaref,14.033333333333331,35.4,  600,BSh
Region-1,Sudan,ElNahoud,12.7,28.433333333333337,  565,BWh
Region-1,Sudan,ElObeid,13.166666666666666,30.233333333333334,  570,BWh
Region-1,Sudan,Geneina,13.483333333333333,22.45,  805,BSh
Region-1,Sudan,HELGadeeda,15.316666666666666,35.6,  450,BWh
Region-1,Sudan,Hudieba,17.566666666666666,33.93333333333333,  350,BWh
Region-1,Sudan,Kadugli,11.0,29.716666666666665,  500,BSh
Region-1,Sudan,Karima,18.55,31.85,  250,BWh
Region-1,Sudan,Kassala,15.466666666666669,36.4,  500,BWh
Region-1,Sudan,Khartoum,32.55,,,BWh
Region-1,Sudan,Kosti,13.166666666666666,30.233333333333334,  380,BWh
Region-1,Sudan,Nyala,12.066666666666666,24.883333333333333,  655,BSh
Region-1,Sudan,Port-Sudan,19.583333333333332,37.21666666666667,    5,BWh
Region-1,Sudan,Rashad,11.866666666666667,31.05,  885,BSh
Region-1,Sudan,Sennar,13.55,33.61666666666667,  420,BSh
Region-1,Sudan,Shambat,15.666666666666666,32.53333333333333,  380,BWh
Region-1,Sudan,Shendi,16.7,33.43333333333333,  360,BWh
Region-1,Sudan,UmBanein,13.066666666666666,33.95,  435,BSh
Region-1,Sudan,WadMadeni,14.2,33.483333333333334,  405,BWh
Region-1,Sudan,WadiHalfa,21.816666666666663,31.35,  190,BWh
Region-1,Togo,ATAKPAME,7.563333333333333,1.145,400,Aw
Region-1,Togo,DAPAONG,10.85,0.285,230,Aw
Region-1,Togo,KARA,9.683333333333334,1.221666666666667,342,Aw
Region-1,Togo,KOUMAKONDA,6.986666666666667,0.5983333333333333,641,Aw
Region-1,Togo,LOME,6.213333333333334,1.268333333333333,19.6,BSh
Region-1,Togo,MANGO,10.421666666666669,0.4816666666666667,146,Aw
Region-1,Togo,NIAMTOUGOU,9.8,1.0833333333333333,462,Aw
Region-1,Togo,SOKODE,9.055,1.16,387,Aw
Region-1,Togo,TABLIGBO,6.628333333333333,1.5466666666666666,40,Aw
Region-1,Tunisia,Beja,36.733333333333334,9.183333333333334,158,Csa
Region-1,Tunisia,Bizerte,37.25,9.8,5,Csa
Region-1,Tunisia,ElBorma,31.683333333333337,9.3,258,BWh
Region-1,Tunisia,Gabes,33.88333333333333,10.1,4,BWh
Region-1,Tunisia,Gafsa,34.416666666666664,8.816666666666666,313,BWh
Region-1,Tunisia,Jendouba,36.483333333333334,8.8,143,BSh
Region-1,Tunisia,Jerba,33.86666666666667,10.766666666666667,3,BWh
Region-1,Tunisia,Kairouan,35.666666666666664,10.1,67,BSh
Region-1,Tunisia,Kasserine,35.166666666666664,8.783333333333333,706,BSk
Region-1,Tunisia,Kebili,33.7,8.966666666666667,44,BWh
Region-1,Tunisia,Kelibia,36.85,11.083333333333334,29,Csa
Region-1,Tunisia,LeKef,36.13333333333333,8.7,517,BSk
Region-1,Tunisia,Mahdia,35.5,10.066666666666666,11,BSh
Region-1,Tunisia,Matmata,33.53333333333333,9.966666666666669,141,BWh
Region-1,Tunisia,Mednine,33.35,10.5,116,BWh
Region-1,Tunisia,Monastir,35.666666666666664,10.75,2,BSh
Region-1,Tunisia,Nabeul,36.45,10.733333333333333,4,Csa
Region-1,Tunisia,Remada,32.31666666666667,10.4,300,BWh
Region-1,Tunisia,Sfax,34.71666666666667,10.683333333333334,26,BWh
Region-1,Tunisia,SidiBouZid,35.0,9.483333333333333,354,BWh
Region-1,Tunisia,Siliana,36.06666666666667,9.366666666666667,444,BSk
Region-1,Tunisia,Tabarka,36.95,8.75,66,Csa
Region-1,Tunisia,Tataouine,33.583333333333336,10.766666666666667,242,BWh
Region-1,Tunisia,Thala,35.55,8.683333333333334,1091,BSk
Region-1,Tunisia,Tozeur,33.916666666666664,8.1,92,BWh
Region-1,Tunisia,TunisCarthage,36.833333333333336,10.233333333333333,3,BSh
Region-1,Tunisia,ZaghouanMogran,36.36666666666667,10.116666666666667,156,BSh
Region-1,Zambia,Chipepo,-16.845,27.928333333333335,490,Aw
Region-1,Zambia,Choma,-16.25,27.066666666666663,1267,Cwa
Region-1,Zambia,Isoka,-10.166666666666666,32.63333333333333,1360,Csa
Region-1,Zambia,Kabwe01,-14.416666666666666,28.483333333333334,1165,Csa
Region-1,Zambia,Kafironda,-12.6,28.116666666666667,1243,Cwa
Region-1,Zambia,Kalabo,-14.95,22.7,1053,Aw
Region-1,Zambia,Kaoma,-14.8,24.8,1152,Cwa
Region-1,Zambia,Kasama,-10.216666666666669,31.133333333333333,1384,Cwa
Region-1,Zambia,Kawambwa,-9.8,29.083333333333332,1324,Aw
Region-1,Zambia,Livingstone,-17.816666666666666,25.816666666666663,986,BSh
Region-1,Zambia,Lundazi,-12.283333333333331,33.2,1143,Csa
Region-1,Zambia,LusakaCity,-15.416666666666666,28.316666666666663,1252,Cwa
Region-1,Zambia,LusakaInternational,-15.316666666666666,28.45,1154,Cwa
Region-1,Zambia,Mansa,-11.1,28.85,1122,Cwa
Region-1,Zambia,Mbala,-8.85,31.333333333333332,1673,Aw
Region-1,Zambia,Mfuwe,-13.266666666666667,31.266666666666666,570,Aw
Region-1,Zambia,Misamfu,-10.183333333333334,31.216666666666665,1535,Cwa
Region-1,Zambia,Mongu,-15.25,23.15,1053,Aw
Region-1,Zambia,Mpika,-11.75,31.433333333333337,1402,Csb
Region-1,Zambia,Msekera,-13.65,32.56666666666667,1025,Aw
Region-1,Zambia,MtMakulu,-15.55,28.25,1213,Cwa
Region-1,Zambia,Mumbwa,-14.983333333333333,27.066666666666663,1218,Cwa
Region-1,Zambia,Mwinilunga,-11.75,24.433333333333337,1363,Cwa
Region-1,Zambia,Ndola,-13.0,28.65,1270,Cwa
Region-1,Zambia,Senanga,-16.116666666666667,23.266666666666666,1027,Cwa
Region-1,Zambia,Serenje,-17.466666666666665,24.3,951,Cwa
Region-1,Zambia,Sesheke,-17.466666666666665,24.3,951,Cwb
Region-1,Zambia,Solwezi,-12.183333333333334,26.383333333333333,1333,Cwa
Region-1,Zambia,Zambezi,-13.533333333333331,23.116666666666667,1078,Cwa
Region-2,Bahrain,BahrainInternationalAirport,26.266666666666666,50.65,2,BWh
Region-2,Bangladesh,Ambagan_CTG,22.35,91.81666666666666,,Am
Region-2,Bangladesh,Barishal,22.75,90.33333333333331,2.10,Cwa
Region-2,Bangladesh,Bhola,22.683333333333337,90.65,4.30,Cwa
Region-2,Bangladesh,Bogra,24.85,89.36666666666666,17.90,Cwa
Region-2,Bangladesh,Chandpur,23.266666666666666,90.7,4.88,Aw
Region-2,Bangladesh,Chittagong,22.266666666666666,91.81666666666666,5.50,Am
Region-2,Bangladesh,Chuadanga,23.65,88.86666666666666,11.58,Cwa
Region-2,Bangladesh,Comilla,23.433333333333337,91.18333333333334,7.50,Aw
Region-2,Bangladesh,Coxs_Bazar,21.433333333333337,91.93333333333334,2.10,Am
Region-2,Bangladesh,Dhaka,23.766666666666666,90.38333333333334,8.45,Aw
Region-2,Bangladesh,Dinajpur,25.65,88.68333333333334,37.58,Cwa
Region-2,Bangladesh,Faridpur,23.6,89.85,8.10,Cwa
Region-2,Bangladesh,Feni,23.033333333333335,91.41666666666669,6.40,Am
Region-2,Bangladesh,Hatia,22.433333333333337,91.1,2.44,Am
Region-2,Bangladesh,Ishwardi,24.133333333333333,89.05,12.90,Cwa
Region-2,Bangladesh,Jessore,23.183333333333337,89.16666666666667,6.10,Cwa
Region-2,Bangladesh,Khepupara,21.983333333333334,90.23333333333332,1.83,Aw
Region-2,Bangladesh,Khulna,22.783333333333335,89.53333333333333,2.10,Aw
Region-2,Bangladesh,Kutubdia,21.816666666666663,91.85,2.74,Cwa
Region-2,Bangladesh,M_court,22.866666666666667,91.1,4.87,Am
Region-2,Bangladesh,Madaripur,23.166666666666668,90.18333333333334,7.00,Cwa
Region-2,Bangladesh,Mongla,22.333333333333332,89.6,1.80,Aw
Region-2,Bangladesh,Mymensingh,24.716666666666665,90.43333333333334,18.00,Cwa
Region-2,Bangladesh,Patuakhali,22.333333333333332,90.33333333333331,1.50,Am
Region-2,Bangladesh,Rajshahi,24.366666666666667,88.7,19.50,Cwa
Region-2,Bangladesh,Rangamati,22.533333333333335,92.2,68.89,Am
Region-2,Bangladesh,Rangpur,25.733333333333334,89.23333333333333,32.61,Cwa
Region-2,Bangladesh,Sandwip,22.483333333333334,91.43333333333334,2.10,Am
Region-2,Bangladesh,Satkhira,22.716666666666665,89.08333333333333,3.96,Cwa
Region-2,Bangladesh,Sitakunda,23.583333333333332,91.7,7.30,Am
Region-2,Bangladesh,Srimangal,24.3,91.73333333333332,21.95,Cwa
Region-2,Bangladesh,Syedpur,25.783333333333335,88.88333333333334,39.60,Cwa
Region-2,Bangladesh,Sylhet,24.9,91.88333333333334,33.53,Am
Region-2,Bangladesh,Tangail,24.25,89.91666666666667,10.20,Cwa
Region-2,Bangladesh,Teknaf,20.866666666666667,92.3,5.00,Am
Region-2,China,ABAG_QI,44.03666666666667,115.0,1147.7,BSk
Region-2,China,AKQI,40.99666666666666,78.53166666666667,1986.0,BSk
Region-2,China,ALAR,40.5,81.05,1013.0,BWk
Region-2,China,ALTAY,47.795,88.14666666666666,737.0,BSk
Region-2,China,ANKANG,32.73666666666667,109.095,291.0,Cwa
Region-2,China,ANQING,30.636666666666667,116.98666666666666,62.0,Cfa
Region-2,China,ARXAN,47.184999999999995,119.99666666666668,997.0,Dwc
Region-2,China,BACHU,39.88166666666667,78.585,1117.0,BWk
Region-2,China,BAISE,23.981666666666666,106.68166666666666,177.0,Cwa
Region-2,China,BARKAM,31.981666666666666,102.29666666666668,2666.0,Dwb
Region-2,China,BATANG,30.0,99.18166666666666,2589.0,BSk
Region-2,China,BAYANBULAK,43.095,84.15,2459.0,Dwc
Region-2,China,BAYAN_MOD,40.75,104.5,1329.0,BWk
Region-2,China,BEIHAI,21.545,109.18166666666666,16.0,Cwa
Region-2,China,BEIJING,39.99666666666666,116.345,32.5,BSk
Region-2,China,BENGBU,32.93166666666667,117.3,28.0,Cfa
Region-2,China,BOXIAN,33.82333333333333,115.77166666666666,40.3,Cwa
Region-2,China,BUGT,48.78666666666667,121.935,739.0,Dwb
Region-2,China,CHANGCHUN,43.9,125.23666666666666,238.0,Dwa
Region-2,China,CHANGDE,29.131666666666668,111.74666666666668,151.4,Cfa
Region-2,China,CHANGSHA,28.136666666666667,112.845,119.0,Cfa
Region-2,China,CHENGDE,40.98666666666667,117.935,423.5,Dwa
Region-2,China,CHENGSHANTOU,37.4,122.74666666666668,47.0,Dwa
Region-2,China,CHENZHOU,25.77166666666667,112.98666666666666,185.0,Cfa
Region-2,China,CHIFENG,42.38166666666667,118.89666666666666,669.0,BSk
Region-2,China,CHONGQING,29.645,106.48666666666666,260.0,Cwa
Region-2,China,DACHEN_DAO,28.45,121.945,84.0,Cfa
Region-2,China,DALI,25.7,100.24666666666668,1977.7,Csb
Region-2,China,DALIAN,38.9,121.695,97.0,Dwa
Region-2,China,DANDONG,40.13166666666667,124.39666666666666,14.0,Dwa
Region-2,China,DARLAG,33.75,99.65,3968.0,Dwc
Region-2,China,DA_QAIDAM,37.93166666666667,95.38666666666666,3174.0,BWk
Region-2,China,DA_XIAN,31.2,107.5,344.0,Cwa
Region-2,China,DEGE,31.795,98.585,3184.0,Dwb
Region-2,China,DELINGHA,37.385,97.38666666666666,2982.0,BSk
Region-2,China,DENGQEN,31.436666666666667,95.68166666666666,3874.0,Dwc
Region-2,China,DEQEN,28.45,98.945,3320.0,Dwb
Region-2,China,DINGHAI,30.096666666666664,122.13666666666666,37.0,Cfa
Region-2,China,DINGTAO,35.14666666666667,115.535,51.7,Dwa
Region-2,China,DONGFANG,19.1,108.63666666666666,8.0,Aw
Region-2,China,DONGSHENG,39.89666666666667,110.04666666666668,1459.0,BSk
Region-2,China,DONGTAI,32.93166666666667,120.345,4.0,Cfa
Region-2,China,DOULAN,36.38166666666667,98.18166666666666,3190.0,BSk
Region-2,China,DUOLUN,42.24666666666666,116.48666666666666,1247.0,Dwb
Region-2,China,ENSHI,30.346666666666664,109.48666666666666,458.0,Cfa
Region-2,China,ERENHOT,43.65,112.0,966.0,BWk
Region-2,China,FUJIN,47.295,132.04500000000002,65.0,Dwa
Region-2,China,FUYANG,32.885,115.79666666666668,33.0,Cfa
Region-2,China,FUYUN,47.03666666666667,89.5,810.0,BSk
Region-2,China,FUZHOU,26.145,119.345,85.0,Cfa
Region-2,China,GANGCA,37.39666666666667,100.195,3301.0,Dwc
Region-2,China,GANYU,34.93166666666667,119.195,10.0,Cwa
Region-2,China,GANZHOU,25.886666666666667,115.0,138.0,Cfa
Region-2,China,GAOPING,30.75,106.195,347.0,Cwa
Region-2,China,GOLMUD,36.434999999999995,94.9,2809.0,BWk
Region-2,China,GUAIZIHU,41.385,102.38666666666666,960.0,BWk
Region-2,China,GUANGNAN,24.085,105.085,1251.0,Cwa
Region-2,China,GUANGZHOU,23.235,113.54666666666668,71.5,Cwa
Region-2,China,GUILIN,25.395,110.3,166.0,Cfa
Region-2,China,GUIYANG,26.645,106.79666666666668,1223.0,Cfa
Region-2,China,HAIKOU,20.0,110.25,64.0,Aw
Region-2,China,HAILS,41.45,106.445,1510.0,BWk
Region-2,China,HAILUN,47.45,126.88666666666666,240.0,Dwa
Region-2,China,HALIUT,41.585,108.535,1290.0,BSk
Region-2,China,HAMI,42.835,93.535,739.0,BWk
Region-2,China,HANGZHOU,30.295,120.185,43.0,Cfa
Region-2,China,HANZHONG,33.085,107.095,509.0,Cwa
Region-2,China,HARBIN,45.99666666666666,126.585,117.7,Dwa
Region-2,China,HECHI,24.7,108.095,261.0,Cfa
Region-2,China,HENGCHUN,22.0,120.75,24.0,Aw
Region-2,China,HEQU,39.385,111.25833333333334,1037.0,BSk
Region-2,China,HEYUAN,23.881666666666668,114.79666666666668,61.0,Cwa
Region-2,China,HEZUO,35.0,102.9,2910.0,Dwc
Region-2,China,HOBOKSAR,46.86,85.75,1323.2,BWk
Region-2,China,HOHHOT,40.93166666666667,111.585,1153.5,BSk
Region-2,China,HOTAN,37.196666666666665,79.99666666666667,1375.0,BWk
Region-2,China,HUADE,41.9,114.0,1484.0,BSk
Region-2,China,HUADIAN,43.045,126.75,264.0,Dwa
Region-2,China,HUAIYIN,33.696666666666665,118.99666666666668,13.7,Cwa
Region-2,China,HUOSHAN,31.481666666666666,116.39666666666666,87.6,Cfa
Region-2,China,JARTAI,39.845,105.75,1033.0,BWk
Region-2,China,JARUD_QI,44.585,120.9,266.0,BSk
Region-2,China,JINAN,36.68166666666667,117.05,169.0,Dwa
Region-2,China,JINGDEZHEN,29.381666666666668,117.28166666666668,60.0,Cfa
Region-2,China,JINGHE,44.585,82.835,330.2,BSk
Region-2,China,JINGHE,44.585,82.835,330.2,BSk
Region-2,China,JINING,41.095,113.085,1416.0,BSk
Region-2,China,JINZHOU,41.196666666666665,121.13666666666666,70.0,Dwa
Region-2,China,JIULONG,29.0,101.5,2931.0,Cwb
Region-2,China,JIUQUAN,39.78666666666667,98.54666666666668,1478.0,BWk
Region-2,China,JIXI,45.38166666666667,130.935,273.5,Dwa
Region-2,China,JI_AN,41.15,126.23666666666666,225.5,Cfa
Region-2,China,JI_AN,41.15,126.23666666666666,225.5,Cfa
Region-2,China,KARAMAY,45.635,84.93166666666666,457.0,BWk
Region-2,China,KASHI,39.545,75.75,1386.7,BWk
Region-2,China,KORLA,41.795,85.835,903.0,BWk
Region-2,China,KUNMING,25.036666666666665,102.74666666666668,1892.0,Csb
Region-2,China,KUQA,41.73666666666667,83.03166666666667,1083.5,BWk
Region-2,China,LAOHEKOU,32.49666666666666,111.79666666666668,128.8,Cfa
Region-2,China,LENGHU,38.89666666666667,93.445,2771.0,BWk
Region-2,China,LETING,39.49666666666666,118.9,12.0,Dwa
Region-2,China,LHASA,29.686666666666667,91.195,3650.0,Dwb
Region-2,China,LIJING,26.895,100.23666666666666,2382.0,Cwb
Region-2,China,LINCANG,23.95,100.23666666666666,1503.0,Cwa
Region-2,China,LINDONG,43.95,119.335,587.8,BSk
Region-2,China,LINGLING,26.295,111.63666666666666,174.0,Cfa
Region-2,China,LINHE,40.795,107.38666666666666,1041.0,BWk
Region-2,China,LINJIANG,41.88166666666667,126.945,385.0,Dwa
Region-2,China,LITANG,30.0,100.285,3950.0,Dwc
Region-2,China,LONGKOU,37.635,120.335,5.0,Dwa
Region-2,China,LONGZHOU,22.386666666666667,106.75,129.0,Cfa
Region-2,China,LUSHI,34.14666666666667,111.085,659.5,Dwa
Region-2,China,LUSI,32.14666666666667,121.595,3.8,Cfa
Region-2,China,MADOI,34.934999999999995,98.23666666666666,4273.0,ET
Region-2,China,MANDAL,42.595,110.195,1223.0,BWk
Region-2,China,MANGNAI,38.25,90.93166666666666,2945.0,BWk
Region-2,China,MAZONG_SHAN,41.88166666666667,97.095,1770.0,BWk
Region-2,China,MEI_XIAN,24.346666666666664,116.085,116.9,Cfa
Region-2,China,MENGLA,21.5,101.64666666666666,633.0,Cwa
Region-2,China,MENGZI,23.473333333333333,103.39666666666666,1302.0,Cwa
Region-2,China,MINQIN,38.696666666666665,103.14666666666666,1367.0,BWk
Region-2,China,MUDANJIANG,44.5,129.685,306.5,Dwa
Region-2,China,NAGQU,31.545,92.085,4508.0,ET
Region-2,China,NANCHANG,28.6,115.935,50.0,Cfa
Region-2,China,NANJING,31.996666666666663,118.9,32.0,Cfa
Region-2,China,NANNING,22.846666666666664,108.55,152.0,Cfa
Region-2,China,NANYANG,33.18166666666667,112.54666666666668,181.6,Cwa
Region-2,China,NARAN_BULAG,44.635,114.15,1183.0,BSk
Region-2,China,NENJIANG,49.184999999999995,125.29666666666668,243.0,Dwb
Region-2,China,NYINGCHI,29.585,94.48666666666666,3001.0,Cwb
Region-2,China,OTOG_QI,39.18166666666667,108.04666666666668,1381.0,BSk
Region-2,China,PAGRI,27.795,89.14666666666666,4300.0,ET
Region-2,China,PINGLIANG,35.595,106.685,1348.0,Dwb
Region-2,China,POTOU,38.14666666666667,116.55,13.0,BSk
Region-2,China,QAMDO,31.231666666666666,97.185,3316.2,Dwb
Region-2,China,QIAN_GORLOS,45.14666666666667,124.88666666666666,136.0,Dwa
Region-2,China,QINGDAO,36.085,120.39666666666666,77.0,Cwa
Region-2,China,QIQIHAR,47.446666666666665,123.935,148.0,Dwa
Region-2,China,QITAI,44.03666666666667,89.585,795.0,BSk
Region-2,China,QUMARLEB,34.196666666666665,95.845,4176.0,ET
Region-2,China,QU_XIAN,28.985,118.88666666666666,82.9,Cfa
Region-2,China,RUIAN,27.846666666666664,120.65,38.0,Cfa
Region-2,China,RUO_ERGAI,33.64666666666667,102.98666666666666,3441.0,Dwc
Region-2,China,SANHU_DAO,16.596666666666664,111.63666666666666,5.2,Aw
Region-2,China,SANYA,18.235,109.64666666666666,420.0,Aw
Region-2,China,SERTAR,32.345,100.39666666666666,3896.0,Dwc
Region-2,China,SHACHE,38.49666666666666,77.285,1232.0,BWk
Region-2,China,SHANGHAI__BAOSHAN,31.436666666666667,121.53166666666668,9.0,Cfa
Region-2,China,SHANTOU,23.481666666666666,116.74666666666668,3.0,Cfa
Region-2,China,SHANWEI,22.846666666666664,115.38666666666666,17.7,Cwa
Region-2,China,SHAOGUAN,24.686666666666667,113.68166666666666,122.0,Cfa
Region-2,China,SHAOWU,27.395,117.48666666666666,219.0,Cfa
Region-2,China,SHENGSI,30.795,122.53166666666668,81.0,Cfa
Region-2,China,SHENYANG,41.795,123.535,49.0,Dwa
Region-2,China,SHEYANG,33.75,120.3,3.0,Cfa
Region-2,China,SHIQUANHE,32.5,80.14666666666666,4280.0,BWk
Region-2,China,SHISANJIANFANG,43.23666666666667,91.79666666666668,732.0,BWk
Region-2,China,SIMAO,22.786666666666665,101.04666666666668,1303.0,Cwa
Region-2,China,SONGPAN,32.684999999999995,103.68166666666666,2882.5,Dwb
Region-2,China,TACHENG,46.795,83.0,535.0,BSk
Region-2,China,TAIBEI,25.096666666666664,121.535,9.0,Cfa
Region-2,China,TAIDONG,22.75,121.15,10.0,Am
Region-2,China,TAINAN,23.0,120.23666666666666,14.0,Cwa
Region-2,China,TAIYUAN,37.635,112.64666666666666,777.3,BSk
Region-2,China,TAIZHONG,24.231666666666666,120.74666666666668,78.0,Cwa
Region-2,China,TAZHONG,39.0,83.685,1100.0,BWk
Region-2,China,TENGCHONG,25.045,98.56,1696.9,Cwb
Region-2,China,TIKANLIK,40.696666666666665,87.78166666666667,847.0,BWk
Region-2,China,TINGRI,28.695,87.14666666666666,4300.0,BSk
Region-2,China,TONGHE,45.98666666666667,128.79500000000002,110.0,Dwa
Region-2,China,TONGLIAO,43.68166666666667,122.285,180.0,BSk
Region-2,China,TUOTUOHE,34.23666666666667,92.49666666666668,4535.0,ET
Region-2,China,TURPAN,42.95,89.29666666666667,39.3,BWk
Region-2,China,ULIASTAI,45.53666666666667,116.98666666666666,841.0,BSk
Region-2,China,WEIFANG,36.78666666666667,119.24666666666668,22.0,Dwa
Region-2,China,WEINING,26.886666666666667,104.345,2236.0,Cwb
Region-2,China,WENJIANG,30.75,103.88666666666666,555.0,Cwa
Region-2,China,WUDAOLIANG,35.23666666666667,93.14666666666666,4613.0,ET
Region-2,China,WUDU,33.4,104.935,1079.0,BSk
Region-2,China,WUHAN,30.6,114.05,24.0,Cfa
Region-2,China,WUTAI_SHAN,38.95,113.535,2210.0,Dwc
Region-2,China,WUZHOU,23.545,111.3,120.0,Cfa
Region-2,China,WU_LU_MU_QI,43.845,87.65,936.0,Dfa
Region-2,China,XIAMEN,24.545,118.14666666666666,139.0,Cfa
Region-2,China,XICHANG,27.981666666666666,102.285,1599.0,Cwa
Region-2,China,XIGAZE,29.25,88.945,3837.0,Dwb
Region-2,China,XILIN_HOT,43.95,116.13666666666666,1004.0,BSk
Region-2,China,XINGREN,25.496666666666663,105.24666666666668,1379.0,Cwa
Region-2,China,XINGTAI,37.24666666666666,114.41,184.0,BSk
Region-2,China,XINING,36.65,101.73666666666666,2434.2,Dwb
Region-2,China,XINYANG,32.196666666666665,114.05,115.0,Cfa
Region-2,China,XIN_BARAG_YOUQI,48.74666666666666,116.85833333333332,556.7,BSk
Region-2,China,XISHA_DAO,16.895,112.39666666666666,5.0,Aw
Region-2,China,XI_UJIMQIN_QI,44.64666666666667,117.68166666666666,997.0,Dwb
Region-2,China,XUZHOU,34.345,117.15,42.0,Cwa
Region-2,China,YANCHI,37.88166666666667,107.445,1356.0,BSk
Region-2,China,YANGJIANG,21.895,111.98666666666666,91.0,Cwa
Region-2,China,YANJI,42.885,129.5,258.0,Dwb
Region-2,China,YAN_AN,36.64666666666667,109.53166666666668,1181.1,BSk
Region-2,China,YIBIN,28.786666666666665,104.68166666666666,502.8,Cwa
Region-2,China,YICHANG,30.795,111.38666666666666,257.7,Cwa
Region-2,China,YICHUN,47.7,128.89666666666668,259.1,Dwb
Region-2,China,YINCHUAN,38.48666666666667,106.28166666666668,1112.0,BWk
Region-2,China,YINGKOU,40.684999999999995,122.185,5.0,Dwa
Region-2,China,YONG_AN,25.985,117.43166666666666,204.0,Cfa
Region-2,China,YOUYANG,28.895,108.785,827.7,Cwa
Region-2,China,YULIN,38.28666666666667,109.845,1158.0,BSk
Region-2,China,YUMENZHEN,40.28666666666667,97.095,1527.0,BWk
Region-2,China,YUNCHENG,35.160000000000004,111.085,376.5,BSk
Region-2,China,YUSHU,33.0,96.98666666666666,3717.7,Dwc
Region-2,China,YU_ZHONG,35.885,104.15,1875.0,BSk
Region-2,China,ZADOI,32.9,95.3,4068.0,Dwc
Region-2,China,ZHANGJIAKOU,40.845,114.945,774.1,BSk
Region-2,China,ZHANGWU,42.434999999999995,122.595,84.0,Dwa
Region-2,China,ZHANGYE,39.14666666666667,100.345,1462.3,BWk
Region-2,China,ZHENGZHOU,34.73666666666667,113.65,111.0,Cwa
Region-2,China,ZHIJIANG,27.45,109.74666666666668,273.0,Cfa
Region-2,HongKongChina,HongKongObservatory,22.311666666666667,114.21166666666667,31.7,Cwa
Region-2,Iran,Abadan,30.43,48.288333333333334,6.6,BWh
Region-2,Iran,Abadeh,31.273333333333333,52.69833333333334,2030,BWk
Region-2,Iran,AbumusaIsland,25.91166666666667,55.08,6.6,BWh
Region-2,Iran,Ahar,38.43333333333333,47.06666666666667,1391,BSk
Region-2,Iran,Ahvaz,31.401666666666664,48.79833333333333,22.5,BWh
Region-2,Iran,Aligudarz,33.44833333333333,49.715,2022.1,Dsa
Region-2,Iran,Arak,34.098333333333336,49.78333333333333,1702.8,Dsa
Region-2,Iran,Ardebil,38.225,48.388333333333335,1335.2,BSk
Region-2,Iran,Babolsar,36.775,52.68833333333333,-21.0,Csa
Region-2,Iran,Baft,29.233333333333334,56.583333333333336,2280,BSk
Region-2,Iran,Bam,29.148333333333333,58.36333333333334,1066.9,BWh
Region-2,Iran,BandarAnzali,37.545,49.495000000000005,-23.6,Csa
Region-2,Iran,BandarDayyer,27.833333333333332,51.93333333333333,4,BWh
Region-2,Iran,BandarLengeh,26.586666666666662,54.88666666666667,22.7,BWh
Region-2,Iran,Bandarabbas,27.288333333333338,56.403333333333336,9.8,BWh
Region-2,Iran,Birjand,32.92666666666667,59.285,1491,BWk
Region-2,Iran,Bojnurd,37.50666666666667,57.32,1065,BSk
Region-2,Iran,BushehrCoastal,28.923333333333332,50.843333333333334,8.4,BSh
Region-2,Iran,Chahbahar,25.35333333333333,60.656666666666666,8.0,BWh
Region-2,Iran,Dogonbadan,30.41,50.83166666666667,726,BSh
Region-2,Iran,Esfahan,32.52166666666667,51.73666666666667,1550,BWk
Region-2,Iran,Fasa,28.98,53.733333333333334,1268,BSh
Region-2,Iran,Ferdows,34.1,58.18833333333333,1293,BWk
Region-2,Iran,Gharakhil,36.475,52.79666666666667,14.7,Csa
Region-2,Iran,Gorgan,36.93,54.48166666666666,0,Csa
Region-2,Iran,HamedanAirport,34.88333333333333,48.541666666666664,1740.8,Dsa
Region-2,Iran,Ilam,33.61,46.47,1337,Csa
Region-2,Iran,Iranshahr,27.293333333333333,60.72666666666667,591.1,BWh
Region-2,Iran,Jask,25.66,57.785,5.2,BWh
Region-2,Iran,Kahnuj,28.048333333333336,57.78,499,BWh
Region-2,Iran,Kashan,33.968333333333334,51.55166666666667,955,BWh
Region-2,Iran,Kashmar,35.29333333333333,58.50666666666667,1109.7,BSh
Region-2,Iran,Kerman,30.286666666666665,57.025000000000006,1754,BWk
Region-2,Iran,Kermanshah,34.36333333333334,47.17,1318.5,Csa
Region-2,Iran,Khorramabad,33.46666666666666,48.285,1147.8,Csa
Region-2,Iran,Khoy,38.59833333333333,45.055,1103.4,BSk
Region-2,Iran,KhurBiabanak,33.78666666666667,55.15666666666667,842.2,BWh
Region-2,Iran,KishIsland,26.55,54.06,30,BWh
Region-2,Iran,Mahabad,36.77,45.79166666666667,1351.8,Csa
Region-2,Iran,Maku,39.443333333333335,44.43333333333333,1411.2,BSk
Region-2,Iran,Maragheh,37.41833333333334,46.208333333333336,1344.0,BSk
Region-2,Iran,Maravehtappeh,37.809999999999995,55.99333333333333,460.0,BSk
Region-2,Iran,Mashhad,36.251666666666665,59.70333333333333,999.2,BSk
Region-2,Iran,Masjedsoleyman,31.983333333333334,49.278333333333336,320.5,BSh
Region-2,Iran,Mianeh,37.45,47.7,1110,BSk
Region-2,Iran,Nehbandan,31.585,60.041666666666664,1188,BWh
Region-2,Iran,Nowshahr,36.718333333333334,51.468333333333334,-20.9,Csa
Region-2,Iran,OmidiyehAghajari,30.788333333333338,49.709999999999994,27,BWh
Region-2,Iran,Orumiyeh,37.70166666666667,45.08166666666666,1328,BSk
Region-2,Iran,ParsabadAirport,39.645,47.92,77.8,BSk
Region-2,Iran,Qazvin,36.32,50.11833333333333,1279.1,BSk
Region-2,Iran,Quchan,37.11666666666667,58.45,1287,BSk
Region-2,Iran,Ramsar,36.92666666666666,50.68333333333333,-20,Csa
Region-2,Iran,Rasht,37.35166666666667,49.66166666666667,-8.6,Cfa
Region-2,Iran,Sabzevar,36.24333333333334,57.73,962,BSk
Region-2,Iran,SafiabadDezful,32.27,48.515,82.9,BSh
Region-2,Iran,Sanandaj,35.276666666666664,47.08833333333333,1373.4,Csa
Region-2,Iran,Saqez,36.24666666666667,46.36666666666667,1522.8,Dsa
Region-2,Iran,Sarab,37.93333333333333,47.53333333333333,1682,BSk
Region-2,Iran,Sarakhs,36.556666666666665,61.22666666666667,278,BSh
Region-2,Iran,Saravan,27.425,62.330000000000005,1182,BWh
Region-2,Iran,Semnan,35.61333333333334,53.445,1127,BWh
Region-2,Iran,Shahrekord,32.336666666666666,50.870000000000005,2048.9,Dsa
Region-2,Iran,Shahrud,36.45,54.995,1325.2,BWk
Region-2,Iran,Shiraz,29.618333333333332,52.615,1488.0,BSh
Region-2,Iran,SiriIsland,25.97,54.556666666666665,4.4,BWh
Region-2,Iran,Sirjan,29.466666666666665,55.68333333333333,1739.4,BWk
Region-2,Iran,Tabas,33.62166666666667,56.955000000000005,711,BWh
Region-2,Iran,Tabriz,38.15,46.288333333333334,1361,BSk
Region-2,Iran,TehranMehrabadAirport,35.74333333333333,51.35666666666666,1191,BSh
Region-2,Iran,TorbatHeydariyeh,35.40666666666667,59.235,1451,BSk
Region-2,Iran,Yasuj,30.775,51.58,1816.3,Csa
Region-2,Iran,Yazd,31.923333333333332,54.321666666666665,1230.2,BWh
Region-2,Iran,Zabol,31.115,61.59166666666666,489.2,BWh
Region-2,Iran,Zahedan,29.5,60.901666666666664,1370.0,BWh
Region-2,Iran,Zanjan,36.711666666666666,48.54666666666667,1659.4,BSk
Region-2,Iraq,AL-HAI,32.13333333333333,46.03333333333333,   15,BWh
Region-2,Iraq,AMARA,31.833333333333332,47.166666666666664,    9,BWh
Region-2,Iraq,BAGHDAD,33.3,44.4,   32,BWh
Region-2,Iraq,BASRA,30.516666666666666,47.78333333333333,-9999,BWh
Region-2,Iraq,DIWANIYA,31.95,44.95,   20,BWh
Region-2,Iraq,KERBALLA,32.56666666666667,44.05,   40,BWh
Region-2,Iraq,KHANAQIN,34.35,45.38333333333333,-9999,BSh
Region-2,Iraq,KIRKUK,35.46666666666667,44.4,  300,BSh
Region-2,Iraq,NAJAF,31.95,44.31666666666667,   50,BWh
Region-2,Iraq,NASIRIYA,31.016666666666666,46.233333333333334,    3,BWh
Region-2,Japan,Abashiri,44.016666666666666,144.33666666666667,37.6,Dfb
Region-2,Japan,Akita,39.71666666666667,140.17333333333335,6.3,Cfa
Region-2,Japan,Aomori,40.84666666666667,140.77666666666667,2.8,Dfa
Region-2,Japan,Asahikawa,43.79,142.39666666666668,119.8,Dfb
Region-2,Japan,Chichijima,27.133333333333333,142.22333333333333,2.7,Am
Region-2,Japan,Choshi,35.763333333333335,140.89,20.1,Cfa
Region-2,Japan,Fukue,32.74333333333333,128.8766666666667,25.1,Cfa
Region-2,Japan,Fukuoka,33.65666666666667,130.41666666666669,2.5,Cfa
Region-2,Japan,Hachijojima,33.14666666666667,139.83666666666667,151.2,Cfa
Region-2,Japan,Hakodate,41.81666666666667,140.77,35.0,Dfa
Region-2,Japan,Hiroshima,34.473333333333336,132.51999999999998,3.6,Cfa
Region-2,Japan,Ishigakijima,24.35333333333333,124.23,5.7,Af
Region-2,Japan,Izuhara,34.26333333333333,129.33333333333334,3.7,Cfa
Region-2,Japan,Kagoshima,31.58,130.61333333333334,3.9,Cfa
Region-2,Japan,Kanazawa,36.61333333333334,136.63333333333333,5.7,Cfa
Region-2,Japan,Kochi,33.56666666666667,133.6233333333333,0.5,Cfa
Region-2,Japan,Kushiro,42.99333333333333,144.42666666666668,4.5,Dfb
Region-2,Japan,Maebashi,36.43,139.11,112.1,Cfa
Region-2,Japan,Maizuru,35.45,135.31666666666666,2.4,Cfa
Region-2,Japan,Matsue,35.49,133.14,16.9,Cfa
Region-2,Japan,Matsuyama,33.89333333333334,132.82666666666668,32.2,Cfa
Region-2,Japan,Minamidaitojima,25.886666666666667,131.28666666666666,15.3,Af
Region-2,Japan,Minamitorishima,24.313333333333336,153.98333333333332,7.1,Aw
Region-2,Japan,Mito,36.446666666666665,140.46666666666667,29.0,Cfa
Region-2,Japan,Miyakojima,24.843333333333337,125.33666666666666,38.5,Af
Region-2,Japan,Miyazaki,31.963333333333335,131.48000000000002,9.2,Cfa
Region-2,Japan,Morioka,39.77333333333333,141.24,155.2,Dfa
Region-2,Japan,Nagano,36.72,138.23333333333335,418.2,Dfa
Region-2,Japan,Nagasaki,32.733333333333334,129.86666666666667,26.9,Cfa
Region-2,Japan,Nagoya,35.166666666666664,137.04,51.1,Cfa
Region-2,Japan,Naha,26.24,127.70333333333332,28.1,Cfa
Region-2,Japan,Naze,28.436666666666667,129.5533333333333,2.8,Cfa
Region-2,Japan,Nemuro,43.39666666666667,145.59333333333333,25.2,Dfb
Region-2,Japan,Niigata,37.943333333333335,139.02666666666667,4.1,Cfa
Region-2,Japan,Oita,33.24333333333333,131.6266666666667,4.6,Cfa
Region-2,Japan,Omaezaki,34.620000000000005,138.28,45.1,Cfa
Region-2,Japan,Osaka,34.75666666666667,135.52666666666667,23.0,Cfa
Region-2,Japan,Oshima,34.82333333333334,139.42,74.0,Cfa
Region-2,Japan,Saigo,36.220000000000006,133.33333333333334,26.5,Cfa
Region-2,Japan,Sapporo,43.11,141.38666666666666,17.4,Dfa
Region-2,Japan,Sendai,38.32,140.96333333333334,38.9,Cfa
Region-2,Japan,Shionomisaki,33.45,135.79,67.5,Cfa
Region-2,Japan,Suttsu,42.85333333333333,140.25666666666666,33.4,Dfb
Region-2,Japan,Takamatsu,34.32666666666667,134.07000000000002,9.4,Cfa
Region-2,Japan,Tokushima,34.06666666666667,134.60666666666663,1.6,Cfa
Region-2,Japan,Tokyo,35.73333333333333,139.75,25.2,Cfa
Region-2,Japan,Tottori,35.50333333333334,134.26333333333332,7.1,Cfa
Region-2,Japan,Tsu,34.733333333333334,136.52666666666667,2.7,Cfa
Region-2,Japan,Urakawa,42.22,142.82666666666668,36.7,Dfb
Region-2,Japan,Wajima,37.42333333333333,136.95333333333332,5.2,Cfa
Region-2,Japan,Wakamatsu,37.513333333333335,139.96,211.7,Dfa
Region-2,Japan,Wakkanai,45.49,141.73666666666665,2.8,Dfb
Region-2,Kazakhstan,ALMATYOGMS,43.27,77.01333333333334,846.870000,Dfa
Region-2,Kazakhstan,Achysai,43.56333333333333,68.97000000000001,819,Dsa
Region-2,Kazakhstan,Agadyr,48.31,72.85,688.900000,Dfb
Region-2,Kazakhstan,Akkol,52.031666666666666,70.99666666666667,383.000000,Dfb
Region-2,Kazakhstan,Akkudyk,42.96666666666667,54.083333333333336,77,BWk
Region-2,Kazakhstan,Akkum,43.7,67.41666666666667,173.000000,BWk
Region-2,Kazakhstan,Aksai,51.20833333333333,53.07,62.800000,Dfa
Region-2,Kazakhstan,Aksengir,43.555,76.31166666666667,642.000000,Dfa
Region-2,Kazakhstan,Aksuat,47.766666666666666,82.81666666666666,535.000000,BSk
Region-2,Kazakhstan,Aktau,43.62833333333334,51.281666666666666,-21,BWk
Region-2,Kazakhstan,Aktobe,50.29666666666667,57.25833333333333,219.3,Dfa
Region-2,Kazakhstan,AktogaiVKO,46.9,79.6,364.000000,BSk
Region-2,Kazakhstan,Aktogay,52.015,75.57333333333334,106,Dfb
Region-2,Kazakhstan,Alakol,45.97833333333334,81.64833333333333,361.000000,BSk
Region-2,Kazakhstan,AlmatyKamenskoeplato,43.26833333333333,76.95333333333333,1316.000000,Dfb
Region-2,Kazakhstan,Amangeldy,50.275,65.24333333333334,141,BSk
Region-2,Kazakhstan,Anarkhay,44.016666666666666,75.5,829.831000,BSk
Region-2,Kazakhstan,AqsuAyuly,48.775,73.73,724.000000,Dfb
Region-2,Kazakhstan,Aqtogay,48.31666666666667,74.98333333333333,777.170000,BSk
Region-2,Kazakhstan,Aqzhar,47.62833333333334,83.71166666666667,648.670000,Dfa
Region-2,Kazakhstan,AralTenizi,46.846666666666664,61.71,52,BWk
Region-2,Kazakhstan,Aralkol,50.361666666666665,66.94666666666667,66.9,Dfb
Region-2,Kazakhstan,Arkalyk,50.295,66.92500000000001,356,Dfb
Region-2,Kazakhstan,Arshalinsky,52.75833333333333,61.175,260,Dfb
Region-2,Kazakhstan,Arshaly_5,50.93,72.22166666666668,426.000000,Dfb
Region-2,Kazakhstan,Arys,42.49333333333333,68.8,237,Dsa
Region-2,Kazakhstan,Assy,43.266666666666666,78.1,2215.600000,Dfc
Region-2,Kazakhstan,Atbasar,51.885000000000005,68.43166666666666,301.900000,Dfb
Region-2,Kazakhstan,Atyrau,47.11666666666667,51.88333333333333,-23.7,BSk
Region-2,Kazakhstan,Aul4,45.49666666666667,75.24000000000001,362.000000,BWk
Region-2,Kazakhstan,AulTuraraRyskulova,42.60166666666667,70.37333333333332,808.86,Dsa
Region-2,Kazakhstan,Ayagoz,48.01666666666667,80.42500000000001,656.000000,Dfb
Region-2,Kazakhstan,Ayakkum,46.401666666666664,58.7,111,BWk
Region-2,Kazakhstan,Aydarly,44.23333333333333,75.88666666666666,498.000000,BSk
Region-2,Kazakhstan,BAKANAS,44.87,76.27166666666666,395.590000,BSk
Region-2,Kazakhstan,Bakty,46.70666666666666,82.73333333333333,441.000000,Dfa
Region-2,Kazakhstan,Balhash,46.834999999999994,75.125,350.500000,BSk
Region-2,Kazakhstan,Balkashino,52.586666666666666,68.79166666666667,398.500000,Dfb
Region-2,Kazakhstan,Barshatas,48.20666666666666,78.65,646.000000,BSk
Region-2,Kazakhstan,Baskuduk,50.1,61.03333333333333,221.000000,BSk
Region-2,Kazakhstan,Bayanauyl,50.85333333333333,75.37666666666667,464,Dfb
Region-2,Kazakhstan,Bektauata,47.45,74.88833333333334,618.600000,BSk
Region-2,Kazakhstan,Besoba,49.406666666666666,74.52333333333334,715.890000,BSk
Region-2,Kazakhstan,Beyneu,45.39333333333334,55.26333333333333,474.600000,BWk
Region-2,Kazakhstan,Blagoveshchenka,54.40833333333333,67.04666666666667,150.400000,Dfb
Region-2,Kazakhstan,BorovoeSKFM,53.01166666666666,70.56,354.000000,Dfb
Region-2,Kazakhstan,Bulaevo,54.9,70.45,133.6,Dfb
Region-2,Kazakhstan,Chapaevo,50.18666666666667,51.254999999999995,15.780000,BSk
Region-2,Kazakhstan,Chiganak,45.14,73.96666666666667,348.000000,BWk
Region-2,Kazakhstan,Chingirlau,51.056666666666665,54.13166666666667,103.65,Dfa
Region-2,Kazakhstan,Chkalovo,53.666666666666664,70.47500000000001,163,BSk
Region-2,Kazakhstan,Dievskaya,52.053333333333335,63.69333333333333,215,Dfb
Region-2,Kazakhstan,Dmitrievka,50.795,80.89666666666666,358.100000,Dfb
Region-2,Kazakhstan,Dzhambeity,50.25,52.64,32.000000,BSk
Region-2,Kazakhstan,Egindykol_5,51.06333333333333,69.55666666666667,340.000000,Dfb
Region-2,Kazakhstan,Ekibastuz,51.71333333333334,75.37333333333333,208,Dfb
Region-2,Kazakhstan,Ekidyn,49.3,66.40833333333333,212.8,BSk
Region-2,Kazakhstan,Emba,48.846666666666664,59.09,252.000000,BSk
Region-2,Kazakhstan,Ertis,53.34166666666667,75.47166666666668,93.96,Dfb
Region-2,Kazakhstan,Esik,43.37,77.46666666666667,944.430000,Dfa
Region-2,Kazakhstan,Esil,51.99,66.39333333333335,224.600000,Dfb
Region-2,Kazakhstan,Fedorovka,53.32333333333334,76.39166666666667,107.000000,Dfb
Region-2,Kazakhstan,FortShevchenko,44.605,50.30833333333333,-25,BWk
Region-2,Kazakhstan,Ganyushkino,46.681666666666665,49.266666666666666,-24.5,BWk
Region-2,Kazakhstan,Golubovka,53.11666666666667,74.13499999999999,120.000000,Dfb
Region-2,Kazakhstan,Ilinsky,50.031666666666666,56.370000000000005,189.000000,BSk
Region-2,Kazakhstan,Inderborskiy,48.58833333333333,51.766666666666666,11,BSk
Region-2,Kazakhstan,Irgiz,48.66166666666667,61.285,116.000000,BSk
Region-2,Kazakhstan,KARASHOKY,43.90833333333334,77.86333333333333,489.930000,BSk
Region-2,Kazakhstan,KEGEN,43.041666666666664,79.25833333333334,1844.000000,Dfb
Region-2,Kazakhstan,KOKSHETAU,53.318333333333335,69.42999999999999,269.620000,BSk
Region-2,Kazakhstan,KUIGAN,45.44,74.20666666666666,344.000000,BWk
Region-2,Kazakhstan,KULAN,42.916666666666664,72.8,700.190000,BSk
Region-2,Kazakhstan,KYRGYZSAI,43.403333333333336,79.49666666666667,1272.000000,Dfb
Region-2,Kazakhstan,Kamenka,51.178333333333335,50.34166666666666,72.490000,Dfa
Region-2,Kazakhstan,Kapshagai,43.88333333333333,77.08166666666666,489.000000,BSk
Region-2,Kazakhstan,Karabalyk,53.78,62.059999999999995,177,Dfb
Region-2,Kazakhstan,Karabau,48.458333333333336,52.96333333333333,-4,BSk
Region-2,Kazakhstan,Karabutak,50.04333333333334,60.17666666666667,229,Dfa
Region-2,Kazakhstan,Karaganda,49.81666666666667,73.23166666666667,552.200000,Dfb
Region-2,Kazakhstan,KaragandaSKhOS,50.21333333333333,72.8,492.800000,Dfb
Region-2,Kazakhstan,Karak,44.88,63.27,143,BWk
Region-2,Kazakhstan,Karamendy,51.663333333333334,64.24666666666667,212,Dfb
Region-2,Kazakhstan,Karasu,52.70333333333333,65.53666666666666,206,Dfb
Region-2,Kazakhstan,Karatyuba,49.74,53.575,44,BSk
Region-2,Kazakhstan,Karaulkeldy,48.69333333333333,55.93,200.000000,BSk
Region-2,Kazakhstan,Karauyl,48.99,79.23333333333333,613.000000,Dfb
Region-2,Kazakhstan,KatonKaragay,49.166666666666664,85.61666666666666,1067.000000,Dfb
Region-2,Kazakhstan,Kaynar,49.18333333333333,77.38333333333334,840.000000,BSk
Region-2,Kazakhstan,Kazaly,45.78333333333333,62.14,66.11,BWk
Region-2,Kazakhstan,Kazygurt,41.81666666666667,69.41833333333332,597,Dsa
Region-2,Kazakhstan,Kertindy,50.01166666666666,71.67,420.800000,Dfb
Region-2,Kazakhstan,Khantau,44.21666666666667,73.84333333333333,171.000000,BSk
Region-2,Kazakhstan,Kiima,51.583333333333336,67.66,269.620000,Dfb
Region-2,Kazakhstan,Kishkenekol,53.68333333333334,72.405,137.000000,Dfb
Region-2,Kazakhstan,Kogaly,44.565000000000005,78.72166666666668,1405.000000,Dfb
Region-2,Kazakhstan,Kokpekty,48.75,82.38333333333334,511.000000,Dfb
Region-2,Kazakhstan,Koktobe,51.60666666666667,77.47833333333334,133.000000,Dfb
Region-2,Kazakhstan,Komsomolskoye,50.47666666666667,60.55,275,Dfa
Region-2,Kazakhstan,Korday,43.345000000000006,74.99666666666667,1140.000000,Dsa
Region-2,Kazakhstan,Korgalzhyn,50.635000000000005,70.07000000000001,330.000000,Dfb
Region-2,Kazakhstan,Korneevka,50.29666666666667,74.32,627.700000,Dfb
Region-2,Kazakhstan,Kos-Istek,50.736666666666665,57.9,337,Dfb
Region-2,Kazakhstan,Kostanay,53.25333333333334,63.778333333333336,151.07,Dfb
Region-2,Kazakhstan,Krasnoarmeyka,52.38,77.23833333333333,126.000000,Dfb
Region-2,Kazakhstan,Kulsary,46.986666666666665,53.995,-12,BWk
Region-2,Kazakhstan,Kulzhambay,47.53333333333333,64.55,133.000000,BWk
Region-2,Kazakhstan,Kurshim,48.62166666666666,83.70333333333333,433.000000,Dfa
Region-2,Kazakhstan,Kushmurun,52.455000000000005,64.64166666666667,109,Dfb
Region-2,Kazakhstan,Kyzan,44.943333333333335,52.754999999999995,-1,BWk
Region-2,Kazakhstan,Kyzylorda,44.865,65.58,129,BWk
Region-2,Kazakhstan,Kzyltau,48.02333333333333,72.26666666666667,755.000000,Dsb
Region-2,Kazakhstan,Kzylzhar,48.346666666666664,69.71666666666667,361.100000,BSk
Region-2,Kazakhstan,LENINOGORSK,50.333333333333336,83.55,809.170000,Dfb
Region-2,Kazakhstan,Lepsi,45.56166666666667,80.65333333333332,1012.000000,Dfb
Region-2,Kazakhstan,Lozovaya,53.39833333333333,77.75500000000001,106.000000,Dfb
Region-2,Kazakhstan,MYNZHILKI,43.02833333333333,77.09666666666666,3017.000000,ET
Region-2,Kazakhstan,Mahambet,47.69333333333333,51.66,-18,BSk
Region-2,Kazakhstan,Martuk,50.82833333333333,56.57333333333333,176.000000,Dfa
Region-2,Kazakhstan,Matai,45.901666666666664,78.76666666666667,409.600000,BSk
Region-2,Kazakhstan,Merke,42.945,73.19166666666668,690.000000,Dsa
Region-2,Kazakhstan,Mikhaylovka,53.82666666666666,76.53333333333333,178,Dfb
Region-2,Kazakhstan,Mikhaylovka,53.82666666666666,76.53333333333333,178,Dfb
Region-2,Kazakhstan,Moiynkum,44.315,73.01666666666667,350.000000,BSk
Region-2,Kazakhstan,Mugodzarskaya,48.605,58.46666666666667,397.400000,BSk
Region-2,Kazakhstan,NARYNKOL,42.815000000000005,80.215,1806.000000,Dfb
Region-2,Kazakhstan,Novoalekseevka,50.221666666666664,55.74666666666666,142.000000,Dfa
Region-2,Kazakhstan,Novorossiskoe,50.233333333333334,57.983333333333334,415.63,Dfb
Region-2,Kazakhstan,Nur-Sultan_5,51.18833333333333,71.44666666666667,347.230000,Dfb
Region-2,Kazakhstan,Nura,48.93,62.306666666666665,81.000000,BSk
Region-2,Kazakhstan,Nurlykent,42.666666666666664,70.81666666666666,983.000000,Dsb
Region-2,Kazakhstan,Opornaya,46.2,54.45,9.000000,BWk
Region-2,Kazakhstan,Otar,43.54,75.275,742.212000,Dfa
Region-2,Kazakhstan,Pavlodar,52.218333333333334,77.93666666666667,119.970000,Dfb
Region-2,Kazakhstan,Peshnoy,46.946666666666665,51.711666666666666,-27,BWk
Region-2,Kazakhstan,Petropavlovsk,54.85333333333333,70.12333333333333,100.030000,Dfb
Region-2,Kazakhstan,Presnogorkovka,54.538333333333334,65.77666666666667,159,Dfb
Region-2,Kazakhstan,Qyzylqum,42.86666666666667,67.26666666666667,183.66,BWk
Region-2,Kazakhstan,Rodnikovka,50.721666666666664,57.169999999999995,371.000000,Dfb
Region-2,Kazakhstan,Rodnikovskoe,51.056666666666665,74.11,368.600000,BSk
Region-2,Kazakhstan,Rudnyi,52.99333333333333,64.09833333333333,154,Dfb
Region-2,Kazakhstan,Ruzaevka,52.85,66.99833333333333,227.000000,Dfb
Region-2,Kazakhstan,SHELEK,43.623333333333335,78.27,606.000000,BSk
Region-2,Kazakhstan,Sagyz,48.248333333333335,54.89333333333334,55,BSk
Region-2,Kazakhstan,Sam,45.443333333333335,56.086666666666666,86.5,BWk
Region-2,Kazakhstan,Samarka,49.03,83.36666666666666,495.000000,Dfa
Region-2,Kazakhstan,Sarkand,45.43833333333333,79.97500000000001,759.000000,Dfa
Region-2,Kazakhstan,Sarykol,53.37833333333334,65.56,214.63,Dfb
Region-2,Kazakhstan,Saryozek,44.38166666666667,78.01666666666667,947.000000,Dfa
Region-2,Kazakhstan,Saryshagan,46.18666666666667,73.67666666666666,358.000000,BWk
Region-2,Kazakhstan,Saudakent,43.80166666666667,70.00833333333334,337.000000,BSk
Region-2,Kazakhstan,Saumalkol,53.355,68.18666666666667,325.000000,Dfb
Region-2,Kazakhstan,Sayak,46.95,77.36666666666666,474.600000,BWk
Region-2,Kazakhstan,Seleznevka,49.67,83.53833333333333,396.000000,Dfb
Region-2,Kazakhstan,Semijarka,50.88333333333333,78.31666666666666,148.000000,BSk
Region-2,Kazakhstan,Semipalatinsk,50.416666666666664,80.28333333333333,194.700000,Dfb
Region-2,Kazakhstan,Sergeevka,53.965,67.46833333333333,153.000000,Dfb
Region-2,Kazakhstan,Shalabay,49.68666666666666,81.53333333333333,364.000000,Dfb
Region-2,Kazakhstan,Shalday,51.915,78.835,162.000000,Dfb
Region-2,Kazakhstan,Shalkar,47.39,59.346666666666664,170.000000,BSk
Region-2,Kazakhstan,Shar,49.605,81.08666666666666,337.000000,Dfb
Region-2,Kazakhstan,Sharbakty,52.56333333333333,79.1,147.000000,Dfb
Region-2,Kazakhstan,Shardara,41.32833333333333,67.98166666666667,270.69,BSk
Region-2,Kazakhstan,Shayan,43.045,69.39333333333333,367,Dsa
Region-2,Kazakhstan,Shchuchinsk,52.968333333333334,70.22,393.080000,Dfb
Region-2,Kazakhstan,Shemonaiha,50.675,81.86666666666666,310.000000,Dfb
Region-2,Kazakhstan,Shieli,44.26166666666666,66.79166666666667,151,BWk
Region-2,Kazakhstan,Shokpar,43.81666666666667,74.39333333333333,768.000000,BSk
Region-2,Kazakhstan,Sholakkorgan,43.775,69.19166666666668,480,BSk
Region-2,Kazakhstan,Shuyldaq,42.35666666666666,70.48833333333334,1947.08,Dsb
Region-2,Kazakhstan,Shymkent,42.42,69.76,597.29,Dsa
Region-2,Kazakhstan,ShyrykRabat,44.05,62.53333333333333,78.000000,BWk
Region-2,Kazakhstan,Stepnogorsk,52.373333333333335,71.875,318.000000,Dfb
Region-2,Kazakhstan,TARAZ,42.86666666666667,71.3,651.290000,BSk
Region-2,Kazakhstan,TOLEBI,43.75833333333333,73.81833333333333,455.000000,BSk
Region-2,Kazakhstan,TORGAI,49.641666666666666,63.56,132.830000,BSk
Region-2,Kazakhstan,Taipak,49.093333333333334,51.843333333333334,2.430000,BSk
Region-2,Kazakhstan,Taiynsha,53.931666666666665,69.81,155.000000,Dfb
Region-2,Kazakhstan,Taldykorgan,45.086666666666666,78.45,589.0000,Dsa
Region-2,Kazakhstan,Tasaryk,42.23833333333334,70.18166666666667,1116,Dsa
Region-2,Kazakhstan,Tasty,44.88333333333333,69.20500000000001,189.9,BWk
Region-2,Kazakhstan,TastyTaldy,50.80666666666667,66.64833333333333,305.000000,Dfb
Region-2,Kazakhstan,Tekeli,44.89333333333333,78.79,988.000000,Dfb
Region-2,Kazakhstan,Temir,49.18666666666667,57.14666666666667,233.52,Dfa
Region-2,Kazakhstan,Terekty,48.495,85.73333333333333,615.000000,Dfa
Region-2,Kazakhstan,Timiryazevo,53.788333333333334,66.53,171.000000,Dfb
Region-2,Kazakhstan,Tobol,52.72166666666667,62.59666666666667,206,Dfb
Region-2,Kazakhstan,Tugyl,47.733333333333334,84.18333333333334,397.000000,BSk
Region-2,Kazakhstan,Turkestan,43.29833333333333,68.23166666666667,204.89,BSk
Region-2,Kazakhstan,Tushchybek,44.156666666666666,51.989999999999995,239.000000,BWk
Region-2,Kazakhstan,UZYNAGASH,43.36833333333333,76.39833333333333,813.000000,Dfa
Region-2,Kazakhstan,Uil,49.14333333333333,54.72333333333333,95.450000,BSk
Region-2,Kazakhstan,Ulanbel,44.81666666666667,71.18833333333333,236.877000,BWk
Region-2,Kazakhstan,UlkenAlmatylake,43.105,77.05833333333334,2500.670000,Dfc
Region-2,Kazakhstan,UlkenNaryn,49.21666666666667,84.48333333333333,402.310000,Dfb
Region-2,Kazakhstan,Uralsk,51.291666666666664,51.32333333333333,35.170000,Dfa
Region-2,Kazakhstan,Urda,48.84,47.49833333333333,4.360000,BSk
Region-2,Kazakhstan,Urzhar,47.083333333333336,81.65,489.000000,Dsa
Region-2,Kazakhstan,Usharal,46.196666666666665,80.96000000000001,387.000000,Dsa
Region-2,Kazakhstan,Ushtagan,47.9,48.8,-11.1,BSk
Region-2,Kazakhstan,Ushtobe,45.288333333333334,78.06333333333333,427.000000,BSk
Region-2,Kazakhstan,Uspenka,52.92,77.49666666666667,111.000000,Dfb
Region-2,Kazakhstan,UstKamenogorsk,49.916666666666664,82.58333333333333,284.000000,Dfb
Region-2,Kazakhstan,Uyuk,43.83,70.95,372.000000,BWk
Region-2,Kazakhstan,Vozvyshenka,54.51166666666666,71.02166666666668,125.000000,Dfb
Region-2,Kazakhstan,Yanvartsevo,51.48833333333333,52.233333333333334,45,Dfa
Region-2,Kazakhstan,Yavlenka,54.388333333333335,68.465,112,Dfb
Region-2,Kazakhstan,Yereymentau,51.675,73.14833333333333,397.000000,Dfb
Region-2,Kazakhstan,ZHARKENT,44.225,80.10833333333333,641.000000,BSk
Region-2,Kazakhstan,ZapovednikMarkakol,48.78333333333333,86.01666666666667,1372.000000,Dfc
Region-2,Kazakhstan,Zaysan,47.483333333333334,84.88333333333334,591.000000,Dfa
Region-2,Kazakhstan,Zhaksy,51.98,67.35833333333333,386.000000,Dfb
Region-2,Kazakhstan,Zhalanash,43.055,78.71833333333333,1698.000000,Dfb
Region-2,Kazakhstan,Zhalanashkol,45.63,82.22500000000001,377.000000,BWk
Region-2,Kazakhstan,Zhalgyztobe,49.2,81.21666666666667,455.700000,Dfb
Region-2,Kazakhstan,Zhalpaktal,49.705,49.52333333333333,8.44,BSk
Region-2,Kazakhstan,Zhaltyr,51.666666666666664,69.86,303.000000,Dfb
Region-2,Kazakhstan,ZhanaArka,48.76499999999999,71.68833333333333,487.000000,Dfb
Region-2,Kazakhstan,Zhangala,49.208333333333336,50.33833333333333,4.000000,BSk
Region-2,Kazakhstan,Zhanibek,49.485,46.86833333333333,28.490000,BSk
Region-2,Kazakhstan,Zharyk,48.85,72.85499999999999,655.200000,Dfb
Region-2,Kazakhstan,Zheleznodorozhny,52.150000000000006,65.715,252,Dfb
Region-2,Kazakhstan,Zhetykonur,46.89333333333334,68.42166666666667,272.700000,BWk
Region-2,Kazakhstan,Zhetysai,40.879999999999995,68.26,261,Csa
Region-2,Kazakhstan,Zhezkazgan,47.803333333333335,67.72500000000001,344.700000,BSk
Region-2,Kazakhstan,Zhitikara,52.23833333333333,61.236666666666665,279,Dfb
Region-2,Kazakhstan,Zholboldy,52.586666666666666,74.90666666666667,115.000000,Dfb
Region-2,Kazakhstan,Zhosaly,45.56,64.02,99,BWk
Region-2,Kazakhstan,Zlikha,45.248333333333335,66.925,131,BWk
Region-2,Korea,Andong,36.60333333333334,128.7433333333333,141,Dwa
Region-2,Korea,Baengnyeongdo,38.010000000000005,124.77333333333334,36,Dwa
Region-2,Korea,Boeun,36.50833333333333,127.73666666666666,171,Dwa
Region-2,Korea,Bongwhoa,36.99333333333333,128.98666666666668,324,Dwa
Region-2,Korea,Boryeong,36.38,126.59333333333332,9,Dwa
Region-2,Korea,Buan,35.79333333333334,126.79833333333332,12,Dfa
Region-2,Korea,Busan,35.126666666666665,129.10833333333335,69,Cfa
Region-2,Korea,Buyeo,36.3,126.94,13,Dwa
Region-2,Korea,Changwon,35.18666666666667,128.60333333333332,34,Cwa
Region-2,Korea,Cheonan,36.821666666666665,127.34,84,Dwa
Region-2,Korea,Cheongju,36.66833333333333,127.47666666666667,58,Dwa
Region-2,Korea,Cheongsonggun,36.44333333333333,129.07333333333332,208,Dwa
Region-2,Korea,Cheorwon,38.22,127.325,155,Dwa
Region-2,Korea,Chuncheon,37.915,127.74666666666668,75,Dwa
Region-2,Korea,Chungju,36.98833333333334,127.965,114,Dwa
Region-2,Korea,Chupungnyeong,36.23666666666667,128.05,244,Dwa
Region-2,Korea,Daegu,35.89333333333333,128.63,58,Cwa
Region-2,Korea,Daegwallyeong,37.72833333333333,128.72666666666666,772,Dwb
Region-2,Korea,Daejeon,36.39833333333333,127.39833333333333,70,Dwa
Region-2,Korea,Dongducheon,37.91,127.11333333333332,115,Dwa
Region-2,Korea,Donghae,37.541666666666664,129.16166666666666,40,Cwa
Region-2,Korea,Ganghwa,37.74333333333334,126.51,47,Dwa
Region-2,Korea,GangjinGun,34.7,126.78666666666666,16,Cfa
Region-2,Korea,Gangneung,37.75833333333333,128.9283333333333,27,Cfa
Region-2,Korea,Geochang,35.669999999999995,127.95833333333334,228,Dwa
Region-2,Korea,Geoje,34.91166666666667,128.6266666666667,44,Cfa
Region-2,Korea,Geumsan,36.13333333333333,127.55666666666669,172,Dwa
Region-2,Korea,Gimhaesi,35.295,128.92666666666665,54,Cwa
Region-2,Korea,Gochang,35.42166666666667,126.67666666666666,52,Dfa
Region-2,Korea,Goheung,34.625,127.32,51,Cwa
Region-2,Korea,Gosan,33.345,126.22666666666667,71,Cfa
Region-2,Korea,Gumi,36.19833333333333,128.33833333333334,49,Dwa
Region-2,Korea,Gunsan,36.031666666666666,126.81666666666666,27,Dfa
Region-2,Korea,Gwangju,35.20333333333333,126.93166666666669,70,Cwa
Region-2,Korea,Gyeongju,35.82,129.20499999999998,40,Cfa
Region-2,Korea,Haenam,34.571666666666665,126.58,16,Cfa
Region-2,Korea,Hamyanggun,35.56666666666667,127.805,152,Dwa
Region-2,Korea,Hapcheon,35.64,128.185,26,Dwa
Region-2,Korea,Heuksando,34.705,125.455,75,Cfa
Region-2,Korea,Hongcheon,37.68333333333333,127.94833333333332,140,Dwa
Region-2,Korea,Icheon,37.333333333333336,127.48833333333332,80,Dwa
Region-2,Korea,Imsil,35.67166666666667,127.29666666666668,247,Dwa
Region-2,Korea,Incheon,37.531666666666666,126.665,68,Dwa
Region-2,Korea,Inje,38.10833333333333,128.16833333333332,201,Dwa
Region-2,Korea,Jangheung,34.714999999999996,126.93333333333334,43,Cwa
Region-2,Korea,Jangsu,35.69166666666666,127.53833333333333,406,Dwa
Region-2,Korea,Jecheon,37.205,128.2483333333333,264,Dwa
Region-2,Korea,Jeju,33.583333333333336,126.59333333333332,20,Cfa
Region-2,Korea,Jeongeup,35.629999999999995,126.86666666666666,68,Dfa
Region-2,Korea,JeongseonGun,37.455,128.70833333333331,307,Dwa
Region-2,Korea,Jeonju,35.845000000000006,127.17833333333334,54,Dwa
Region-2,Korea,Jinju,35.23166666666666,128.07333333333332,29,Cwa
Region-2,Korea,Miryang,35.531666666666666,128.79666666666665,8,Cwa
Region-2,Korea,Mokpo,34.82,126.455,44,Cfa
Region-2,Korea,Mungyeong,36.68,128.225,173,Dwa
Region-2,Korea,Namhae,34.89833333333333,127.975,45,Cwa
Region-2,Korea,Namwon,35.44333333333333,127.46166666666667,133,Dwa
Region-2,Korea,Paju,37.89833333333333,126.84833333333331,30,Dwa
Region-2,Korea,Pohang,36.108333333333334,129.4466666666667,3,Cfa
Region-2,Korea,Sancheong,35.47666666666667,127.94,138,Cwa
Region-2,Korea,Sangju,36.45,128.19333333333333,96,Dwa
Region-2,Korea,Seogwipo,33.31,126.64166666666668,51,Cfa
Region-2,Korea,Seongsan,33.403333333333336,126.94666666666666,20,Cfa
Region-2,Korea,Seosan,36.825,126.54666666666668,25,Dwa
Region-2,Korea,Seoul,37.595000000000006,127.04333333333334,85,Dwa
Region-2,Korea,Sokcho,38.255,128.63833333333335,17,Cfa
Region-2,Korea,Sunchanggun,35.39333333333333,127.18666666666664,129,Dwa
Region-2,Korea,Suwon,37.29333333333334,127.06333333333332,39,Dwa
Region-2,Korea,Taebaek,37.18833333333333,129.01833333333332,714,Dwb
Region-2,Korea,Tongyeong,34.905,128.44666666666666,31,Cfa
Region-2,Korea,Uiryeonggun,35.35166666666667,128.31166666666667,14,Dwa
Region-2,Korea,Uiseong,36.385,128.715,81,Dwa
Region-2,Korea,Uljin,37.03333333333333,129.47666666666666,48,Cfa
Region-2,Korea,Ulleungdo,37.553333333333335,130.975,221,Cfa
Region-2,Korea,Ulsan,35.660000000000004,129.34,81,Cfa
Region-2,Korea,Wando,34.458333333333336,126.71,35,Cfa
Region-2,Korea,Wonju,37.35666666666667,128.01166666666668,150,Dwa
Region-2,Korea,Yangpyeong,37.515,127.55,47,Dwa
Region-2,Korea,Yangsansi,35.343333333333334,129.0366666666667,6,Cwa
Region-2,Korea,Yeongcheon,36.03,128.95833333333331,96,Dwa
Region-2,Korea,Yeongdeok,36.53333333333333,129.455,40,Cfa
Region-2,Korea,Yeonggwanggun,35.285,126.53333333333332,37,Dfa
Region-2,Korea,Yeongju,36.89666666666667,128.51666666666668,211,Dwa
Region-2,Korea,Yeongwol,37.25333333333333,128.4933333333333,240,Dwa
Region-2,Korea,Yeosu,34.76833333333333,127.77666666666669,65,Cwa
Region-2,Laos,Luangprabang,19.973333333333333,102.24166666666667,304,Aw
Region-2,Laos,Pakse,15.136666666666668,105.88666666666666,168,Aw
Region-2,Laos,Salavane,15.771666666666668,106.47666666666667,170 m,Aw
Region-2,Laos,Savannakhet,16.563333333333333,104.77666666666669,155,Aw
Region-2,Laos,Seno,16.726666666666667,106.05166666666666,185,Aw
Region-2,Laos,Thakhek,17.290000000000003,104.49333333333334,144,Aw
Region-2,Laos,VientianeCapital,17.986666666666665,102.59,171,Aw
Region-2,Laos,Xayabouly,19.296666666666667,101.76166666666668,300,Aw
Region-2,MacaoChina,TaipaGrande,22.209999999999997,113.64,110,Cwa
Region-2,Maldives,Gan,-0.7383333333333334,73.155,1.8,Af
Region-2,Maldives,Hanimaadhoo,6.791666666666667,73.17333333333333,1.4,Am
Region-2,Maldives,Hulhule,4.248333333333334,73.60333333333334,1.73,Am
Region-2,Maldives,Kaadedhdhoo,0.5116666666666667,73.05666666666667,0.61,Af
Region-2,Maldives,Kadhdhoo,1.9116666666666668,73.54333333333334,1.2,Af
Region-2,Mongolia,Altai,46.431666666666665,96.26166666666668,2180,BSk
Region-2,Mongolia,Arvaikheer,46.305,102.81666666666666,1813,BSk
Region-2,Mongolia,Baitag,46.15166666666667,91.56333333333332,1184.2,BWk
Region-2,Mongolia,BaruunUrt,46.695,113.29166666666669,976,BSk
Region-2,Mongolia,Baruunkharaa,48.98,106.12166666666666,808.5,Dwb
Region-2,Mongolia,Baruunturuun,49.70166666666667,94.425,1234.2,Dwb
Region-2,Mongolia,BayanOvoo,47.79833333333333,112.16333333333333,927,BSk
Region-2,Mongolia,BayanUul,49.70333333333333,96.43,1420.3,Dwc
Region-2,Mongolia,Bayanbulag,46.87333333333333,98.105,2257,BSk
Region-2,Mongolia,Bayandelger,45.79833333333333,112.38166666666666,1107.8,BSk
Region-2,Mongolia,Bayankhongor,46.21,100.76166666666668,1858,BSk
Region-2,Mongolia,Binder,48.696666666666665,110.67666666666666,1050,Dwb
Region-2,Mongolia,Bogd,44.711666666666666,102.22,1522,BWk
Region-2,Mongolia,Bulgan,48.82666666666667,103.52833333333334,1219.4,Dwc
Region-2,Mongolia,Choibalsan,48.11833333333333,114.55333333333331,746,BSk
Region-2,Mongolia,Choir,46.35,108.415,1286,BWk
Region-2,Mongolia,Dadal,49.05,111.67,994,Dwb
Region-2,Mongolia,Dalanzadgad,43.63,104.425,1462,BWk
Region-2,Mongolia,Dashbalbar,49.555,114.425,706.9,BSk
Region-2,Mongolia,Durvuljin,47.711666666666666,95.07666666666668,1391.4,BWk
Region-2,Mongolia,Erdenemandal,48.593333333333334,101.37166666666666,1508.7,BSk
Region-2,Mongolia,Erdenesant,47.335,104.54,1358.1,BSk
Region-2,Mongolia,Erdenetsagaan,45.94,115.39833333333333,1070,BSk
Region-2,Mongolia,Galuut,46.71333333333334,100.19,2124,BSk
Region-2,Mongolia,Gurvantes,43.303333333333335,101.08833333333334,1721,BWk
Region-2,Mongolia,Jinst,44.60666666666666,99.3,2229,BWk
Region-2,Mongolia,Khalkhgol,47.696666666666665,118.65,687.3,Dwb
Region-2,Mongolia,Khatgal,50.47,100.155,1666.4,Dwc
Region-2,Mongolia,Khovd,48.05833333333334,91.71166666666666,1405,BWk
Region-2,Mongolia,Khujirt,46.98166666666667,102.84,1662,Dwc
Region-2,Mongolia,Khutag,49.435,102.73,912.4,Dwb
Region-2,Mongolia,Khuvsgul,43.626666666666665,109.65,998.3,BWk
Region-2,Mongolia,Maanit,47.29,107.56,1425,BSk
Region-2,Mongolia,Mandakh,44.40833333333333,108.32833333333332,1308.5,BWk
Region-2,Mongolia,Mandalgobi,45.791666666666664,106.335,1393,BWk
Region-2,Mongolia,Matad,46.98,115.36166666666666,903.3,BSk
Region-2,Mongolia,Muren,49.663333333333334,100.16833333333334,1291,BSk
Region-2,Mongolia,Nogoonnuur,49.69166666666667,90.29333333333334,1474,BWk
Region-2,Mongolia,OmnoGobiHarUs,49.12833333333334,91.77333333333334,1589.3,BSk
Region-2,Mongolia,Orkhon,49.195,105.41333333333334,753.4,Dwb
Region-2,Mongolia,Renchinlkhumbe,51.185,99.66666666666669,1582.2,Dwc
Region-2,Mongolia,SaikhanOvoo,45.51666666666667,103.9,1316,BWk
Region-2,Mongolia,Sainshand,44.935,110.13166666666666,937.9,BWk
Region-2,Mongolia,Tarialan,49.655,101.99166666666667,1217.4,Dwb
Region-2,Mongolia,Tariat,48.19,99.92666666666666,2059.5,Dwc
Region-2,Mongolia,Tonkhil,46.376666666666665,93.91,2221,BWk
Region-2,Mongolia,Tooroi,44.96,96.77,1179,BWk
Region-2,Mongolia,Tosontsengel,48.82833333333333,98.34666666666666,1713,Dwc
Region-2,Mongolia,TsetsenUul,48.821666666666665,96.025,1928,Dwc
Region-2,Mongolia,Tsetserleg,47.49666666666667,101.52666666666669,1690.6,Dwc
Region-2,Mongolia,TsogtOvoo,44.45666666666666,105.31666666666666,1291,BWk
Region-2,Mongolia,Ulaanbaatar,47.92666666666666,106.92,1303.3,BSk
Region-2,Mongolia,Ulaangom,49.995000000000005,92.13333333333333,939.1,BSk
Region-2,Mongolia,Ulgii,49.04666666666667,89.96333333333334,1720,BWk
Region-2,Mongolia,Uliastai,47.78,96.91833333333332,1775,BSk
Region-2,Mongolia,Underkhaan,47.349999999999994,110.66333333333333,1033,BSk
Region-2,Mongolia,Yeroo,49.82833333333333,106.71666666666668,674.5,Dwb
Region-2,Mongolia,ZamynUud,43.78333333333334,111.925,963.9,BWk
Region-2,Mongolia,Zavkhan,48.86000000000001,93.17333333333332,1049.7,BWk
Region-2,Myanmar,Bago,17.333333333333332,96.5,15,Am
Region-2,Myanmar,Bhamo,24.266666666666666,97.2,111,Aw
Region-2,Myanmar,Chauk,20.9,94.9,82,BSh
Region-2,Myanmar,CocoIsland,14.116666666666667,93.38333333333334,3,Am
Region-2,Myanmar,Dawei,14.1,98.21666666666668,16,Am
Region-2,Myanmar,Falam,22.916666666666668,93.68333333333334,1372,Cwb
Region-2,Myanmar,GWA,17.583333333333332,94.58333333333331,3,Am
Region-2,Myanmar,Hakha,22.633333333333333,93.58333333333331,1866,Cwb
Region-2,Myanmar,Hinthada,17.666666666666668,95.41666666666669,26,Aw
Region-2,Myanmar,Hkamti,25.016666666666666,95.7,146,Cwa
Region-2,Myanmar,Hmawbi,17.1,96.06666666666666,27,Am
Region-2,Myanmar,Homalin,24.866666666666667,94.91666666666669,130,Aw
Region-2,Myanmar,Hpaan,16.75,97.66666666666669,9,Am
Region-2,Myanmar,Kabaaye,16.866666666666667,96.18333333333334,20,Am
Region-2,Myanmar,Kalaywa,23.2,94.3,109,Aw
Region-2,Myanmar,Katha,24.166666666666668,96.33333333333331,113,Aw
Region-2,Myanmar,Kawthong,9.966666666666669,98.58333333333331,46,Am
Region-2,Myanmar,Kengtung,21.3,99.61666666666666,827,Aw
Region-2,Myanmar,Kyaukphyu,19.433333333333337,93.56666666666666,5,Am
Region-2,Myanmar,Kyauktaw,20.9,92.98333333333332,3,Am
Region-2,Myanmar,Lashio,22.933333333333337,97.75,747,Cwa
Region-2,Myanmar,Loikaw,19.683333333333337,97.21666666666668,895,Aw
Region-2,Myanmar,Magway,20.133333333333333,94.91666666666669,52,Aw
Region-2,Myanmar,Manaung,18.833333333333332,93.75,9,Am
Region-2,Myanmar,Mandalay,21.983333333333334,96.1,74,Aw
Region-2,Myanmar,Maubin,16.733333333333334,95.65,3,Am
Region-2,Myanmar,Mawlaik,23.633333333333333,94.41666666666669,115,Aw
Region-2,Myanmar,Mawlamyine,16.5,97.61666666666666,21,Am
Region-2,Myanmar,Meiktila,20.883333333333333,95.88333333333334,214,Aw
Region-2,Myanmar,Minbu,20.166666666666668,94.88333333333334,51,BSh
Region-2,Myanmar,Mindat,22.366666666666667,93.95,1395,Csa
Region-2,Myanmar,Mingaladon,16.9,96.18333333333334,28,Am
Region-2,Myanmar,Moekok,22.916666666666668,96.5,1176,Cwa
Region-2,Myanmar,Monywa,22.233333333333334,95.23333333333332,81,BSh
Region-2,Myanmar,Myeik,12.433333333333334,98.6,36,Am
Region-2,Myanmar,Myitkyina,25.366666666666667,97.18333333333334,145,Am
Region-2,Myanmar,NyaungOo,21.2,94.9,61,BSh
Region-2,Myanmar,Pathein,16.766666666666666,94.76666666666668,9,Am
Region-2,Myanmar,Putao,27.333333333333332,97.41666666666669,409,Cwa
Region-2,Myanmar,Pyay,18.8,95.21666666666668,58,Aw
Region-2,Myanmar,Pyinmana,19.716666666666665,96.21666666666668,101,Aw
Region-2,Myanmar,Sagaing,21.9,95.6,64,BSh
Region-2,Myanmar,Shwebo,22.583333333333332,95.71666666666668,106,BSh
Region-2,Myanmar,Sittwe,20.133333333333333,92.88333333333334,4,Am
Region-2,Myanmar,Taunggyi,20.783333333333335,97.05,1436,Cwa
Region-2,Myanmar,Taungoo,18.916666666666668,96.46666666666668,47,Aw
Region-2,Myanmar,Thandwe,18.466666666666665,94.41666666666669,9,Am
Region-2,Myanmar,Thaton,16.916666666666668,97.36666666666666,17,Am
Region-2,Myanmar,Yay,15.25,97.18333333333334,3,Am
Region-2,Nepal,Bhairahawa,27.54,83.43833333333333,108,Cwa
Region-2,Nepal,Biratnagar,26.486666666666668,87.26833333333333,72,Cwa
Region-2,Nepal,Dadeldhura,29.30666666666667,80.60833333333333,1879,Cwb
Region-2,Nepal,Dang,28.055000000000003,82.48666666666666,663,Cwa
Region-2,Nepal,Dhangadhi,28.875,80.60833333333333,184,Cwa
Region-2,Nepal,Dhankuta,27.065,87.40833333333333,1192,Cwa
Region-2,Nepal,Dipayal,29.321666666666665,80.95333333333333,563,Cwa
Region-2,Nepal,Jumla,29.313333333333333,82.24333333333334,2363,Cwb
Region-2,Nepal,Kathmandu,27.721666666666668,85.38666666666666,1337,Cwa
Region-2,Nepal,Nepalgunj,28.101666666666667,81.67500000000001,165,Cwa
Region-2,Nepal,Okhaldhunga,27.348333333333333,86.525,1731,Cwb
Region-2,Nepal,Pokhara,28.2,84.04333333333334,827,Cwa
Region-2,Nepal,Simara,27.235,85.04666666666667,137,Cwa
Region-2,Nepal,Surkhet,28.61,81.64333333333335,720,Cwa
Region-2,Nepal,Taplejung,27.4,87.68666666666667,1744,Cwb
Region-2,Oman,Fahud_Airport,22.418333333333333,56.52333333333333,166,BWh
Region-2,Oman,Khasab_Port,26.261666666666667,56.29666666666667,3,BWh
Region-2,Oman,Masirah,20.695,58.916666666666664,18,BWh
Region-2,Oman,MinaSuQa,23.68,58.6,2,BWh
Region-2,Oman,Muscat_Int,23.65,56.318333333333335,5,BWh
Region-2,Oman,Qairoon_Hairiti,17.283333333333335,54.086666666666666,852,BWh
Region-2,Oman,Saiq_airport,23.115,57.725,1997,BSk
Region-2,Oman,Salalah_airport,17.040000000000003,54.108333333333334,17,BWh
Region-2,Oman,Salalah_port,20.695,58.916666666666664,18,BWh
Region-2,Oman,Sohar-Majis,24.47,56.69833333333333,1,BWh
Region-2,Oman,Thumrait,17.75166666666667,54.06,443,BWh
Region-2,Pakistan,Barkhan,29.883333333333333,69.71666666666667,1097,BSh
Region-2,Pakistan,Chhor,25.516666666666666,69.78333333333333,5,BWh
Region-2,Pakistan,DIKhan,31.816666666666663,70.91666666666667,172,BWh
Region-2,Pakistan,Darosh,35.56666666666667,71.78333333333333,1464,Csa
Region-2,Pakistan,Hyderabad,25.383333333333333,68.41666666666667,28,BWh
Region-2,Pakistan,Islamabad,33.61666666666667,73.1,507,Cwa
Region-2,Pakistan,Jacobabad,28.3,68.46666666666667,55,BWh
Region-2,Pakistan,Jhelum,32.93333333333333,73.71666666666667,232,Cwa
Region-2,Pakistan,Karachi,24.9,67.13333333333334,21,BWh
Region-2,Pakistan,Khanpur,28.65,70.68333333333334,87,BWh
Region-2,Pakistan,Lahore,31.55,74.33333333333333,214,BSh
Region-2,Pakistan,Multan,30.2,71.43333333333334,122,BWh
Region-2,Pakistan,Nawabshah,26.25,68.36666666666666,37,BWh
Region-2,Pakistan,Nokkundi,28.816666666666663,62.75,682,BWh
Region-2,Pakistan,Panjgur,26.966666666666665,64.1,980,BWh
Region-2,Pakistan,Parachinar,33.86666666666667,70.08333333333333,1725,Cfa
Region-2,Pakistan,Pasni,25.266666666666666,63.483333333333334,4,BWh
Region-2,Pakistan,Peshawar,34.03333333333333,71.93333333333334,329,BSh
Region-2,Pakistan,Quetta,30.25,66.88333333333334,1587,BSk
Region-2,Pakistan,Sarghoda,32.05,72.66666666666667,187,BSh
Region-2,Pakistan,Sialkot,32.5,74.53333333333333,255,Cwa
Region-2,Pakistan,Zhob,31.35,69.46666666666667,1405,BSh
Region-2,RussianFederation,Erbogacen,61.266666666666666,108.01666666666668,284,Dfc
Region-2,RussianFederation,GmoImEKFedorova,77.71666666666667,104.3,12,ET
Region-2,RussianFederation,Habarovsk,48.516666666666666,135.16666666666666,88,Dwb
Region-2,RussianFederation,HantyMansijsk,61.016666666666666,69.03333333333333,44,Dfc
Region-2,RussianFederation,Hatanga,71.98333333333333,102.46666666666668,31,Dfc
Region-2,RussianFederation,HosedaHard,67.08333333333333,59.38333333333333,82,Dfc
Region-2,RussianFederation,Ica,55.583333333333336,155.58333333333334,5,Dsc
Region-2,RussianFederation,Ilirnej,67.25,167.96666666666667,352,Dsc
Region-2,RussianFederation,ImPolinyOsipenko,52.416666666666664,136.5,69,Dwb
Region-2,RussianFederation,Irkutsk,52.266666666666666,104.31666666666666,467,Dwb
Region-2,RussianFederation,Isit,60.81666666666667,125.31666666666666,123,Dfc
Region-2,RussianFederation,Ivdel,60.68333333333333,60.45,93,Dfc
Region-2,RussianFederation,Izhevsk,56.833333333333336,53.45,160,Dfb
Region-2,RussianFederation,Jakutsk,62.016666666666666,129.71666666666667,98,Dfc
Region-2,RussianFederation,JuzhnoKurilSk,44.016666666666666,145.86666666666667,44,Dfb
Region-2,RussianFederation,JuzhnoSahalin,46.95,142.71666666666667,22,Dfb
Region-2,RussianFederation,Kamenskoe,62.483333333333334,166.08333333333334,35,Dfc
Region-2,RussianFederation,Kirensk,57.766666666666666,108.06666666666666,256,Dfc
Region-2,RussianFederation,Kjahta,50.36666666666667,106.45,791,Dwb
Region-2,RussianFederation,Kljuchi,56.31666666666667,160.83333333333334,28,Dfc
Region-2,RussianFederation,Kolpasevo,58.31666666666667,82.95,73,Dfc
Region-2,RussianFederation,Korf,60.35,166.0,92,Dsc
Region-2,RussianFederation,Krasnojarsk,56.03333333333333,92.75,277,Dfb
Region-2,RussianFederation,Krasnoufimsk,56.65,57.78333333333333,205,Dfb
Region-2,RussianFederation,Kurgan,55.46666666666667,65.4,71,Dfb
Region-2,RussianFederation,Kyra,49.56666666666667,111.96666666666668,907,Dwb
Region-2,RussianFederation,Leusi,59.61666666666667,65.71666666666667,70,Dfc
Region-2,RussianFederation,Magadan,59.56666666666667,151.28333333333333,115,Dsc
Region-2,RussianFederation,MalyeKarmakuly,72.36666666666666,52.7,18,ET
Region-2,RussianFederation,Markovo,64.68333333333334,170.41666666666666,25,Dfc
Region-2,RussianFederation,Minusinsk,53.7,91.7,254,Dfb
Region-2,RussianFederation,Mogocha,53.75,119.73333333333332,624,Dwc
Region-2,RussianFederation,MysUelen,66.15,-169.83333333333334,5,ET
Region-2,RussianFederation,NarJanMar,67.63333333333334,53.03333333333333,5,Dfc
Region-2,RussianFederation,NerchinskijZavod,51.31666666666667,119.61666666666666,621,Dwb
Region-2,RussianFederation,NikolaevskNaAmure,53.15,140.7,45,Dfb
Region-2,RussianFederation,Nizhneangarsk,55.78333333333333,109.55,477,Dfc
Region-2,RussianFederation,Nizhneudinsk,54.88333333333333,99.03333333333332,410,Dwc
Region-2,RussianFederation,Njaksimvol,62.43333333333333,60.86666666666667,50,Dfc
Region-2,RussianFederation,Norsk,52.35,129.91666666666666,207,Dwb
Region-2,RussianFederation,Ohotsk,59.36666666666667,143.2,5,Dwc
Region-2,RussianFederation,Ojmjakon,63.25,143.15,740,Dfd
Region-2,RussianFederation,Olekminsk,60.4,120.41666666666669,225,Dfc
Region-2,RussianFederation,Olenek,68.5,112.43333333333334,217,Dfc
Region-2,RussianFederation,Omsk,55.016666666666666,73.38333333333334,121,Dfb
Region-2,RussianFederation,Orenburg,51.68333333333333,55.1,117,Dfa
Region-2,RussianFederation,OstrovBeringa,55.2,165.98333333333332,18,Dfc
Region-2,RussianFederation,OstrovDikson,73.5,80.4,42,ET
Region-2,RussianFederation,OstrovKotelNyj,76.0,137.86666666666667,12,ET
Region-2,RussianFederation,OstrovVize,79.5,76.98333333333333,10,ET
Region-2,RussianFederation,OstrovVrangelja,70.98333333333333,-178.48333333333332,18,ET
Region-2,RussianFederation,Pechora,65.11666666666666,57.1,53,Dfc
Region-2,RussianFederation,PetropavKamchatskij,52.9,158.63333333333333,32,Dfc
Region-2,RussianFederation,Pogranichnyj,44.4,131.38333333333333,217,Dwb
Region-2,RussianFederation,Poronajsk,49.21666666666667,143.1,7,Dfc
Region-2,RussianFederation,Sadrinsk,56.06666666666667,63.65,88,Dfb
Region-2,RussianFederation,Salekhard,66.65,66.68333333333334,15,Dfc
Region-2,RussianFederation,Samara,53.25,50.21666666666667,136,Dfb
Region-2,RussianFederation,Sejmchan,62.916666666666664,152.41666666666666,206,Dsc
Region-2,RussianFederation,Shelagontsy,66.25,114.28333333333332,233,Dfd
Region-2,RussianFederation,Sretensk,52.233333333333334,117.7,528,Dwb
Region-2,RussianFederation,Suntar,62.15,117.65,131,Dfc
Region-2,RussianFederation,Syktyvkar,61.68333333333333,50.78333333333333,116,Dfc
Region-2,RussianFederation,Tara,56.9,74.38333333333334,73,Dfb
Region-2,RussianFederation,TarkoSale,64.91666666666667,77.81666666666666,26,Dfc
Region-2,RussianFederation,Ternej,45.0,136.6,51,Dfb
Region-2,RussianFederation,TobolSk,58.15,68.25,45,Dfb
Region-2,RussianFederation,Tomsk,56.5,84.91666666666667,141,Dfb
Region-2,RussianFederation,TroickijPriisk,54.61666666666667,113.13333333333334,1315,Dwc
Region-2,RussianFederation,TroickoPecherskoe,62.7,56.2,135,Dfc
Region-2,RussianFederation,Tura,64.26666666666667,100.23333333333332,188,Dfc
Region-2,RussianFederation,Turuhansk,65.78333333333333,87.93333333333334,38,Dfc
Region-2,RussianFederation,UfaDioma,54.71666666666667,55.833333333333336,104,Dfb
Region-2,RussianFederation,UlanUde,51.833333333333336,107.6,514,BSk
Region-2,RussianFederation,UstBarguzin,53.416666666666664,109.01666666666668,459,Dsc
Region-2,RussianFederation,UstCilMa,65.43333333333334,52.266666666666666,78,Dfc
Region-2,RussianFederation,UstKamchatsk,56.21666666666667,162.71666666666667,19,Dsc
Region-2,RussianFederation,UstMajya,60.38333333333333,134.45,169,Dfd
Region-2,RussianFederation,UstVoyampolka,58.5,159.16666666666666,4,Dsc
Region-2,RussianFederation,Vanavara,60.333333333333336,102.26666666666668,261,Dfc
Region-2,RussianFederation,Verhojansk,67.55,133.38333333333333,136,Dsd
Region-2,RussianFederation,Viljujsk,63.766666666666666,121.61666666666666,111,Dfc
Region-2,RussianFederation,Vitim,59.45,112.58333333333331,186,Dfc
Region-2,RussianFederation,Vladivostok,43.11666666666667,131.93333333333334,187,Dwb
Region-2,RussianFederation,Zhigalovo,54.8,105.21666666666668,417,Dfc
Region-2,RussianFederation,Zhigansk,66.76666666666667,123.4,88,Dfc
Region-2,RussianFederation,Zyryanka,65.73333333333333,150.9,38,Dfc
Region-2,SaudiArabia,ARAFAT,21.34,40.01166666666667,308,BWh
Region-2,SaudiArabia,Abha,18.315,42.715,2093,BWh
Region-2,SaudiArabia,Al-Ahsa,25.37166666666667,49.501666666666665,178,BWh
Region-2,SaudiArabia,Al-Baha,20.351666666666667,41.69166666666666,1652,BWh
Region-2,SaudiArabia,Al-Jouf,29.815,40.175,669,BWh
Region-2,SaudiArabia,Al-Olaa,26.555,,,BWh
Region-2,SaudiArabia,Arar,30.91333333333333,41.17666666666667,549,BWh
Region-2,SaudiArabia,Bisha,20.03,42.63166666666667,1162,BWh
Region-2,SaudiArabia,Dhahran,26.30666666666667,50.215,17,BWh
Region-2,SaudiArabia,Gassim,26.346666666666668,43.77166666666667,647,BWh
Region-2,SaudiArabia,Gizan,16.965,42.59166666666667,7,BWh
Region-2,SaudiArabia,Guriat,31.445,37.36,504,BWh
Region-2,SaudiArabia,Hafr-Al-Batin,27.971666666666664,45.55,413,BWh
Region-2,SaudiArabia,Hail,27.44,41.73,1002,BWh
Region-2,SaudiArabia,Jeddah_KAIA,21.761666666666667,39.20333333333333,17,BWh
Region-2,SaudiArabia,KFIA,26.45,49.81666666666667,12,BWh
Region-2,SaudiArabia,Khamis-Mushait,18.380000000000003,42.83833333333333,2056,BWh
Region-2,SaudiArabia,Madinah,24.62166666666667,39.775,636,BWh
Region-2,SaudiArabia,Makkah,21.46,39.78,240,BWh
Region-2,SaudiArabia,Najran,17.668333333333333,44.48166666666666,1212,BWh
Region-2,SaudiArabia,Qaisumah,28.33,46.19833333333333,358,BWh
Region-2,SaudiArabia,Rafha,29.645,43.55166666666667,444,BWh
Region-2,SaudiArabia,RiyadhNew,24.968333333333337,46.748333333333335,614,BWh
Region-2,SaudiArabia,RiyadhOld,24.766666666666666,46.763333333333335,620,BWh
Region-2,SaudiArabia,Sharorah,17.473333333333333,47.14833333333333,725,BWh
Region-2,SaudiArabia,Tabuk,28.425,36.641666666666666,768,BWh
Region-2,SaudiArabia,Taif,21.54,40.626666666666665,1453,BWh
Region-2,SaudiArabia,Turaif,31.71,38.77,852,BWh
Region-2,SaudiArabia,Wadi-Al-Dawasser,20.5,45.21666666666667,622,BWh
Region-2,SaudiArabia,Wejh,26.231666666666666,36.528333333333336,24,BWh
Region-2,SaudiArabia,Yenbo,24.173333333333332,38.13333333333333,10,BWh
Region-2,SriLanka,Anuradhapura,8.415,80.41666666666667,92,Aw
Region-2,SriLanka,Badulla,7.065,81.13166666666666,670,Am
Region-2,SriLanka,Bandarawela,6.915,81.065,1226,Af
Region-2,SriLanka,Batticaloa,7.716666666666667,81.7,8,Am
Region-2,SriLanka,Colombo,6.9,79.86666666666666,7,Af
Region-2,SriLanka,Galle,6.115,80.21666666666667,13,Af
Region-2,SriLanka,Hambantota,6.116666666666666,81.21499999999999,18,Aw
Region-2,SriLanka,Jaffna,9.65,80.01666666666667,3,Aw
Region-2,SriLanka,Katugastota,7.415,80.71499999999999,477,Af
Region-2,SriLanka,Katunayaka,7.166666666666667,79.96499999999999,8,Am
Region-2,SriLanka,Kurunegala,7.466666666666667,80.36666666666666,116,Am
Region-2,SriLanka,MahaIllupallama,8.116666666666667,80.45,117,Aw
Region-2,SriLanka,Mannar,9.066666666666666,79.91666666666667,3,Aw
Region-2,SriLanka,NuwaraEliya,6.966666666666667,80.76666666666667,1894,Cfb
Region-2,SriLanka,Pottuvil,6.965000000000001,81.91499999999999,4,Aw
Region-2,SriLanka,Puttalam,8.115,80.065,2,Aw
Region-2,SriLanka,Rathmalana,6.816666666666666,79.96499999999999,5,Af
Region-2,SriLanka,Ratnapura,6.765000000000001,80.4,86,Af
Region-2,SriLanka,Trincomalee,8.665,81.25,24,Aw
Region-2,SriLanka,Vavuniya,8.75,80.5,98,Aw
Region-2,Thailand,AranyaPrathet,13.7,102.58333333333331,47,Aw
Region-2,Thailand,BangkokMetropolis,13.775,100.61,3.01,Aw
Region-2,Thailand,BangkokPortKlongToei,13.741666666666664,100.575,2.8,Aw
Region-2,Thailand,BhumibolDam,17.296666666666667,99.015,143.73,Aw
Region-2,Thailand,BuaChum,15.266666666666667,101.20666666666666,49.28,Aw
Region-2,Thailand,Chaiyaphum,15.8,102.03333333333332,182.15,Aw
Region-2,Thailand,ChanthaBuri,12.616666666666667,102.18,2.86,Am
Region-2,Thailand,ChiangMai,18.793333333333333,99.00166666666668,304.59,Aw
Region-2,Thailand,ChiangRai,20.01833333333333,99.955,387.779,Aw
Region-2,Thailand,ChokChai,14.73,102.17833333333334,190.34,Aw
Region-2,Thailand,ChonBuri,13.366666666666667,100.98333333333332,0.86,Aw
Region-2,Thailand,Chumphon,10.575,99.21333333333334,4.4,Am
Region-2,Thailand,DonMuangAirport,13.931666666666668,100.63,12,Aw
Region-2,Thailand,HatYaiAirport,6.916666666666667,100.43333333333334,27.4,Am
Region-2,Thailand,HuaHin,12.6,100.025,4.73,Aw
Region-2,Thailand,KabinBuri,13.983333333333333,101.74333333333334,10.555,Aw
Region-2,Thailand,Kalasin,16.40833333333333,103.60833333333332,138.75,Aw
Region-2,Thailand,KamphaengPhet,16.503333333333334,99.57833333333332,80,Aw
Region-2,Thailand,KanchanaBuri,14.051666666666668,99.54833333333332,27.53,Aw
Region-2,Thailand,KhonKaen,16.516666666666666,102.82166666666666,186.97,Aw
Region-2,Thailand,KoLanta,7.533333333333333,99.05,2,Am
Region-2,Thailand,KoSamui,9.466666666666669,100.05,4,Af
Region-2,Thailand,KoSichang,13.22,100.81166666666668,24.85,Aw
Region-2,Thailand,Lampang,18.283333333333335,99.51666666666668,242,Aw
Region-2,Thailand,Lamphun,18.566666666666663,99.03333333333332,296.42,Aw
Region-2,Thailand,Loei,17.45,101.73333333333332,252.51,Aw
Region-2,Thailand,LomSak,16.808333333333334,101.33,142.81,Aw
Region-2,Thailand,LopBuri,14.881666666666666,100.68666666666664,9.998,Aw
Region-2,Thailand,MaeHongSon,19.37666666666667,98.02,265.406,Aw
Region-2,Thailand,MaeSariang,18.166666666666668,97.93333333333334,211,Aw
Region-2,Thailand,MaeSot,16.705,98.555,196,Aw
Region-2,Thailand,Mahasarakham,16.316666666666666,103.075,152.948,Aw
Region-2,Thailand,Mukdahan,16.581666666666667,104.79,138,Aw
Region-2,Thailand,NakhonPhanom,17.465,104.86166666666666,145,Aw
Region-2,Thailand,NakhonRatchasima,14.975,102.09833333333331,186.6,Aw
Region-2,Thailand,NakhonSawan,15.696666666666664,100.21,34.008,Aw
Region-2,Thailand,NakhonsiThammarat,8.56,100.01666666666668,4.142,Af
Region-2,Thailand,Nan,18.845,100.83333333333331,200,Aw
Region-2,Thailand,NangRong,14.583333333333334,102.8,179,Aw
Region-2,Thailand,Narathiwat,6.416666666666667,101.81666666666666,3.57,Af
Region-2,Thailand,NongKhai,17.94,102.81666666666666,173.212,Aw
Region-2,Thailand,PattaniAirport,6.783333333333333,101.15,4.053,Am
Region-2,Thailand,Phatthaya,12.936666666666666,100.88333333333333,58.929,Aw
Region-2,Thailand,Phayao,19.133333333333333,99.9,401.046,Aw
Region-2,Thailand,PhetchaBuri,13.079999999999998,100.11333333333332,2.01,Aw
Region-2,Thailand,Phetchabun,16.433333333333334,101.15,114,Aw
Region-2,Thailand,Phitsanulok,16.851666666666667,100.34166666666668,44.022,Aw
Region-2,Thailand,Phrae,18.166666666666668,100.16666666666669,161.792,Aw
Region-2,Thailand,Phuket,7.883333333333333,98.4,1.83,Am
Region-2,Thailand,PhuketAirport,8.203333333333333,98.38666666666668,5.863,Am
Region-2,Thailand,PilotStation,13.43,100.68,14,Aw
Region-2,Thailand,PrachinBuri,14.1,101.38166666666666,4.15,Aw
Region-2,Thailand,PrachuapKhirikhan,11.833333333333334,99.83333333333331,4,Aw
Region-2,Thailand,Ranong,9.983333333333333,98.61666666666666,7,Am
Region-2,Thailand,Rayong,12.71,101.395,2.6,Aw
Region-2,Thailand,RoiEt,16.036666666666665,103.79666666666668,140,Aw
Region-2,Thailand,SakonNakhon,17.15,104.13333333333334,171,Aw
Region-2,Thailand,Sattahip,12.683333333333334,100.98333333333332,16,Aw
Region-2,Thailand,Satun,6.65,100.08333333333331,4.06,Am
Region-2,Thailand,Songkhla,7.258333333333334,100.645,4.57,Am
Region-2,Thailand,SuphanBuri,14.513333333333334,100.16666666666669,7.23,Aw
Region-2,Thailand,SuratThani,9.146666666666668,99.16166666666668,5,Aw
Region-2,Thailand,Surin,14.883333333333333,103.5,145.81,Aw
Region-2,Thailand,Tak,16.936666666666667,99.19333333333334,124.121,Aw
Region-2,Thailand,TakuaPa,8.688333333333334,98.26333333333334,5.93,Am
Region-2,Thailand,ThaTum,15.316666666666666,103.68333333333334,127.62,Aw
Region-2,Thailand,ThaWangPha,19.163333333333338,100.815,234.7,Aw
Region-2,Thailand,ThongPhaphum,14.786666666666664,98.65166666666669,97.36,Aw
Region-2,Thailand,Trad,11.766666666666667,102.88333333333334,2,Am
Region-2,Thailand,TrangAirport,7.516666666666667,99.61666666666666,13.965,Am
Region-2,Thailand,UbonRatchathani,15.25,104.86666666666666,122,Aw
Region-2,Thailand,UdonThani,17.383333333333333,102.8,177,Aw
Region-2,Thailand,Umphang,16.064999999999998,98.93666666666668,454,Aw
Region-2,Thailand,Uttaradit,17.616666666666667,100.1,63,Aw
Region-2,Thailand,WichianBuri,15.691666666666666,101.14666666666666,68,Aw
Region-2,Turkmenistan,BAGTYYARLYK,38.11333333333334,62.83166666666666,188.9,BWk
Region-2,Turkmenistan,BAHERDEN,38.49833333333333,57.47,159,BWk
Region-2,Turkmenistan,BEREKET,39.29833333333333,55.625,33.4,BWk
Region-2,Turkmenistan,Bayramaly,37.64333333333334,62.195,240,BWk
Region-2,Turkmenistan,Erbent,39.38333333333333,58.663333333333334,87,BWk
Region-2,Turkmenistan,Kerki,37.833333333333336,65.27166666666668,239.8,BSk
Region-2,Turkmenistan,SARAHS,36.56666666666666,61.28,275.0,BSh
Region-2,Turkmenistan,SERHETABAT,35.285,62.415,625.0,BSk
Region-2,Turkmenistan,ТEJEN,37.41166666666666,60.541666666666664,186.4,BWk
Region-2,UAE,AbuDhabiIntlAirport,24.433333333333337,54.65,27,BWh
Region-2,UAE,AlAinIntlAirport,24.32,55.655,264,BWh
Region-2,UAE,AlFujairahIntlAirport,25.173333333333336,56.36000000000001,46,BWh
Region-2,UAE,DubaiIntlAirport,25.25,55.333333333333336,8,BWh
Region-2,UAE,RasAlKhaimahIntlAirport,25.68166666666667,55.96666666666666,31,BWh
Region-2,UAE,SharjahIntlAirport,25.388333333333332,55.52,34,BWh
Region-2,Uzbekistan,Akbajtal,43.15,62.333333333333336,237,BWk
Region-2,Uzbekistan,Andizan,40.733333333333334,72.31666666666666,475,BSk
Region-2,Uzbekistan,Angren,41.0,70.18333333333334,942,Csa
Region-2,Uzbekistan,Ayakagitma,40.68333333333333,64.48333333333333,217.2,BWk
Region-2,Uzbekistan,Bahmal,39.71666666666667,68.01666666666667,1321.7,Dsa
Region-2,Uzbekistan,Baysun,38.2,67.2,1244.6,Csa
Region-2,Uzbekistan,Buhara,39.71666666666667,64.61666666666666,224,BWk
Region-2,Uzbekistan,Buzaubaj,41.75,62.46666666666667,97,BWk
Region-2,Uzbekistan,Chimbaj,42.95,59.8,93,BWk
Region-2,Uzbekistan,Chimgan,41.55,70.01666666666667,1670,Dsb
Region-2,Uzbekistan,Dalverzin,40.4,69.28333333333333,289,BSk
Region-2,Uzbekistan,Denau,38.266666666666666,67.9,516,BSk
Region-2,Uzbekistan,Dzizak,40.11666666666667,67.83333333333333,343,Csa
Region-2,Uzbekistan,Fergana,40.38333333333333,71.75,577,BWk
Region-2,Uzbekistan,Jaslyk,43.88333333333333,57.88333333333333,127,BWk
Region-2,Uzbekistan,Kamchik,41.1,70.5,2138,Dsb
Region-2,Uzbekistan,Karakapalkija,44.85,56.333333333333336,125,BWk
Region-2,Uzbekistan,Karshi,38.75,65.71666666666667,375,BSk
Region-2,Uzbekistan,Kushrabad,40.233333333333334,66.55,736.9,Csa
Region-2,Uzbekistan,Minchukur,38.65,66.93333333333334,2132,Dsb
Region-2,Uzbekistan,Mubarek,39.25,65.15,284.7,BSk
Region-2,Uzbekistan,Namangan,41.0,71.58333333333333,474,BWk
Region-2,Uzbekistan,Navoiy,40.13333333333333,65.35,340.5,BSk
Region-2,Uzbekistan,Nukus,42.483333333333334,59.61666666666667,75,BWk
Region-2,Uzbekistan,Samarkand,39.63333333333333,66.95,725,BSk
Region-2,Uzbekistan,Shahrisabz,39.25,67.06666666666666,625.3,Csa
Region-2,Uzbekistan,Sirdarya,40.81666666666667,68.68333333333334,263,Csa
Region-2,Uzbekistan,Tamdy,41.733333333333334,64.61666666666666,236,BWk
Region-2,Uzbekistan,Tashkent,41.333333333333336,69.3,477,Csa
Region-2,Uzbekistan,Termez,37.28333333333333,67.31666666666666,311,BWk
Region-2,Uzbekistan,Urgench,41.56666666666667,60.63333333333333,100,BWk
Region-2,Uzbekistan,Yangiyer,40.28333333333333,68.83333333333333,315.8,BSk
Region-3,Argentina,AEROPARQUE_AERO,-34.60333333333333,-58.434999999999995,6,Cfa
Region-3,Argentina,AZUL_AERO,-36.90833333333334,-59.901666666666664,147,Cfb
Region-3,Argentina,BAHIA_BLANCA_AERO,-38.788333333333334,-62.22666666666667,83,Cfa
Region-3,Argentina,BALCARCE_INTA,-37.75,-58.38166666666667,129,Cfb
Region-3,Argentina,BARILOCHE_AERO,-41.218333333333334,-71.235,840,Csb
Region-3,Argentina,BARROW_INTA,-38.33666666666667,-60.25,120,Cfb
Region-3,Argentina,BERNARDO_DE_IRIGOYEN_AERO,-26.333333333333332,-53.69333333333333,815,Cfa
Region-3,Argentina,BOLIVAR_AERO,-36.2,-61.10166666666667,94,Cfa
Region-3,Argentina,BUENOS_AIRES_OBSERVATORIO,-34.623333333333335,-58.486666666666665,25,Cfa
Region-3,Argentina,CASTELAR_INTA,-34.63166666666667,-58.69166666666666,22,Cfa
Region-3,Argentina,CATAMARCA_AERO,-28.64333333333333,-65.78166666666667,454,BSh
Region-3,Argentina,CERES_AERO,-29.92,-61.94833333333333,88,Cwa
Region-3,Argentina,CERRO_AZUL_INTA,-27.731666666666666,-55.515,270,Cfa
Region-3,Argentina,CHAMICAL_AERO,-30.418333333333333,-66.36166666666666,461,BSh
Region-3,Argentina,COMODORO_RIVADAVIA_AERO,-45.836666666666666,-67.52,46,BSk
Region-3,Argentina,CONCORDIA_AERO,-31.313333333333333,-58.00833333333333,38,Cfa
Region-3,Argentina,CORDOBA_AERO,-31.361666666666668,-64.27,474,Cwa
Region-3,Argentina,CORDOBA_OBSERVATORIO,-31.44,-64.27166666666668,425,Cwa
Region-3,Argentina,CORONEL_PRINGLES_AERO,-38.026666666666664,-61.39666666666667,247,Cfb
Region-3,Argentina,CORRIENTES_AERO,-27.531666666666663,-58.80833333333333,62,Cfa
Region-3,Argentina,DOLORES_AERO,-36.318333333333335,-57.71666666666667,9,Cfb
Region-3,Argentina,EL_BOLSON_AERO,-41.973333333333336,-71.53666666666666,337,Csb
Region-3,Argentina,EL_CALAFATE_AERO,-50.29,-72.05833333333334,204,BSk
Region-3,Argentina,EL_TREBOL,-32.235,-61.77166666666667,96,Cfa
Region-3,Argentina,ESQUEL_AERO,-42.934999999999995,-71.20166666666667,797,Csb
Region-3,Argentina,EZEIZA_AERO,-34.82666666666667,-58.586666666666666,20,Cfa
Region-3,Argentina,FAMAILLA_INTA,-27.05,-65.49833333333333,363,Cwa
Region-3,Argentina,FORMOSA_AERO,-26.273333333333333,-58.29166666666667,60,Cfa
Region-3,Argentina,GENERAL_PICO_AERO,-35.711666666666666,-63.805,145,Cfa
Region-3,Argentina,GUALEGUAYCHU_AERO,-33.07333333333333,-58.663333333333334,23,Cfa
Region-3,Argentina,HILARIO_ASCASUBI_INTA,-39.446666666666665,-62.635,22,Cfa
Region-3,Argentina,IGUAZU_AERO,-25.801666666666662,-54.54,270,Cfa
Region-3,Argentina,JACHAL,-30.291666666666664,-68.76666666666667,1175,BWk
Region-3,Argentina,JUJUY_AERO,-24.386666666666667,-65.155,905,Cwa
Region-3,Argentina,JUJUY_U_N,-24.236666666666668,-65.37333333333333,1302,Cwb
Region-3,Argentina,JUNIN_AERO,-34.565,-61.00333333333333,81,Cfa
Region-3,Argentina,LABOULAYE_AERO,-34.18333333333334,-63.37166666666667,137,Cwa
Region-3,Argentina,LAS_FLORES,-36.08166666666666,-59.156666666666666,36,Cfa
Region-3,Argentina,LAS_LOMITAS,-24.71333333333333,-60.64666666666667,130,Cwa
Region-3,Argentina,LA_PLATA_AERO,-35.04666666666667,-57.958333333333336,23,Cfa
Region-3,Argentina,LA_QUIACA_OBSERVATORIO,-22.12,-65.60333333333332,3459,BSk
Region-3,Argentina,LA_RIOJA_AERO,-29.456666666666667,-66.84333333333333,429,BSh
Region-3,Argentina,MALARGUE_AERO,-35.553333333333335,-69.58333333333333,1425,BSk
Region-3,Argentina,MARCOS_JUAREZ_AERO,-32.74333333333333,-62.151666666666664,114,Cwa
Region-3,Argentina,MAR_DEL_PLATA_AERO,-38.00833333333333,-57.655,21,Cfb
Region-3,Argentina,MENDOZA_AERO,-32.895,-68.86,704,BWk
Region-3,Argentina,MENDOZA_OBSERVATORIO,-32.95166666666667,-68.90333333333332,827,BWk
Region-3,Argentina,MONTE_CASEROS_AERO,-30.32,-57.666666666666664,54,Cfa
Region-3,Argentina,NEUQUEN_AERO,-38.961666666666666,-68.15333333333334,271,BWk
Region-3,Argentina,NUEVE_DE_JULIO,-35.46666666666666,-60.95666666666667,76,Cfa
Region-3,Argentina,OLAVARRIA_AERO,-36.92666666666667,-60.25333333333334,166,Cfb
Region-3,Argentina,ORAN_AERO,-23.176666666666662,-64.38499999999999,357,Cwa
Region-3,Argentina,PARANA_AERO,-31.825000000000003,-60.486666666666665,78,Cfa
Region-3,Argentina,PASO_DE_LOS_LIBRES_AERO,-29.718333333333337,-57.223333333333336,70,Cfa
Region-3,Argentina,PEHUAJO_AERO,-35.87666666666667,-61.90833333333333,87,Cfa
Region-3,Argentina,PERGAMINO_INTA,-33.995,-60.63166666666667,65,Cfa
Region-3,Argentina,PIGUE_AERO,-37.64833333333333,-62.401666666666664,304,Cfb
Region-3,Argentina,PILAR_OSERVATORIO,-31.675,-63.958333333333336,338,Cwa
Region-3,Argentina,POSADAS_AERO,-27.428333333333335,-55.968333333333334,125,Cfa
Region-3,Argentina,PRE_ROQUE_SAENZ_PENA_AERO,-26.81,-60.50333333333334,93,Cwa
Region-3,Argentina,PUNTA_INDIO_B_A,-35.35666666666667,-57.33833333333333,22,Cfa
Region-3,Argentina,RECONQUISTA_AERO,-29.23,-59.74333333333333,53,Cfa
Region-3,Argentina,RESISTENCIA_AERO,-27.465,-59.108333333333334,52,Cfa
Region-3,Argentina,RIO_CUARTO_AERO,-33.155,-64.32833333333333,421,Cwa
Region-3,Argentina,RIO_GALLEGOS_AERO,-51.66833333333334,-69.34666666666666,19,BSk
Region-3,Argentina,RIO_GRANDE_B_A,-53.846666666666664,-67.80166666666666,22,Cfc
Region-3,Argentina,ROSARIO_AERO,-32.94833333333333,-60.858333333333334,25,Cfa
Region-3,Argentina,SALTA_AERO,-24.898333333333333,-65.52,1221,Cwb
Region-3,Argentina,SANTA_ROSA_AERO,-36.641666666666666,-64.345,191,Cfa
Region-3,Argentina,SANTIAGO_DEL_ESTERO_AERO,-27.778333333333332,-64.38166666666666,199,BSh
Region-3,Argentina,SAN_ANTONIO_OESTE_AERO,-40.791666666666664,-65.10166666666666,20,BSk
Region-3,Argentina,SAN_FERNANDO_AERO,-34.480000000000004,-58.59,3,Cfa
Region-3,Argentina,SAN_JUAN_AERO,-31.613333333333333,-68.45,598,BWh
Region-3,Argentina,SAN_JULIAN_AERO,-49.34833333333333,-67.81833333333333,62,BSk
Region-3,Argentina,SAN_LUIS_AERO,-33.31333333333333,-66.35833333333333,713,Cwa
Region-3,Argentina,SAN_MARTIN,-33.105000000000004,-68.53833333333334,653,BWk
Region-3,Argentina,SAN_RAFAEL_AERO,-34.62833333333334,-68.40833333333335,748,BSk
Region-3,Argentina,SAUCE_VIEJO_AERO,-31.746666666666663,-60.83166666666666,18,Cfa
Region-3,Argentina,TANDIL_AERO,-37.28,-59.315000000000005,175,Cfb
Region-3,Argentina,TARTAGAL_AERO,-22.698333333333338,-63.861666666666665,450,Cwa
Region-3,Argentina,TINOGASTA,-28.07,-67.64,1201,BWh
Region-3,Argentina,TRELEW_AERO,-43.25333333333334,-65.35833333333333,43,BSk
Region-3,Argentina,TRES_ARROYOS,-38.406666666666666,-60.29,115,Cfb
Region-3,Argentina,TUCUMAN_AERO,-26.856666666666666,-65.14999999999999,450,Cwa
